EventId,Type,Severity,TMC,StartTime(UTC),EndTime(UTC),LocationLat,LocationLng,Number,Street,City,State
T-4974274,Construction,2,518,2018-12-31 13:17:05,2020-12-31 13:41:00,42.7495,-97.933502,52900.0,State Spur 54D,Niobrara,NE
T-4974452,Construction,2,518,2018-12-31 15:13:12,2020-12-31 15:41:00,41.829159,-97.470917,55299.0,828th Rd,Madison,NE
T-6843526,Construction,1,701,2018-12-31 10:53:58,2020-10-01 03:59:00,34.113178,-80.949448,2277.0,Hard Scrabble Rd,Columbia,SC
T-11179659,Construction,1,401,2018-12-31 10:56:54,2020-01-02 04:59:00,34.083092,-80.957161,7931.0,Overpond Rd,Columbia,SC
T-11179660,Construction,1,401,2018-12-31 09:26:49,2020-01-02 04:59:00,34.17255,-79.8862,4001.0,Lake Oakdale Dr,Florence,SC
T-11179661,Construction,1,401,2018-12-31 10:18:34,2020-01-02 04:59:00,34.251942,-79.838791,399.0,Home Ave,Darlington,SC
T-11203810,Construction,2,641,2018-12-31 16:45:02,2019-12-28 04:59:00,41.4711,-82.172897,200.0,Arizona Ave,Lorain,OH
T-11204850,Construction,2,518,2018-12-31 13:32:47,2020-01-01 00:01:00,42.0075,-96.252502,500.0,W 7th St,Decatur,NE
T-11205802,Construction,0,701,2018-12-31 14:00:00,2019-12-31 00:01:00,39.744228,-104.993378,650.0,15th St,Denver,CO
T-11205803,Construction,0,701,2018-12-31 09:00:00,2019-12-31 01:01:00,39.744499,-104.991287,595.0,16th St,Denver,CO
T-11292540,Construction,3,517,2018-12-31 16:43:42,2019-12-02 04:59:00,41.467758,-82.180679,952.0,W Erie Ave,Lorain,OH
T-11297609,Construction,2,493,2018-12-31 10:22:00,2019-12-08 23:00:00,31.266411,-89.284988,5129.0,US Highway 49,Hattiesburg,MS
T-11808066,Construction,2,401,2018-12-31 09:21:44,2019-11-01 03:59:00,34.172218,-79.76268,1298.0,James Jones Ave,Florence,SC
T-13208346,Construction,2,401,2018-12-31 09:42:58,2019-09-20 21:00:00,34.324909,-79.33609,2901.0,Highway 57 S,Dillon,SC
T-13223201,Construction,2,701,2018-12-31 12:47:17,2019-09-24 01:00:00,43.355949,-124.199402,93778.0,Newport Ln,Coos Bay,OR
T-13441263,Construction,2,806,2018-12-31 10:31:00,2019-09-04 05:00:00,40.810322,-96.705482,1104.0,L St,Lincoln,NE
T-13441264,Construction,2,806,2018-12-31 10:31:00,2019-09-04 05:00:00,40.811371,-96.70549,298.0,S 11th St,Lincoln,NE
T-13441266,Construction,2,806,2018-12-31 10:31:00,2019-09-04 05:00:00,40.813618,-96.707008,101.0,N 10th St,Lincoln,NE
T-13445055,Construction,2,701,2018-12-31 12:54:21,2019-09-14 01:00:00,43.700008,-124.109428,1332.0,Highway 101 S,Reedsport,OR
T-15059099,Construction,3,735,2018-12-31 16:21:46,2019-06-28 21:00:00,41.978081,-92.785408,3270.0,260th St,Marshalltown,IA
T-15392226,Construction,2,735,2018-12-31 07:32:26,2019-07-01 23:00:00,37.024639,-120.05629,19000.0,Road 27,Madera,CA
T-15762832,Construction,2,401,2018-12-31 11:28:34,2019-05-31 23:00:00,33.208221,-97.13501,619.0,Myrtle St,Denton,TX
T-15773487,Construction,2,701,2018-12-31 07:26:37,2019-06-01 23:00:00,36.86586,-120.00132,28597.0,Avenue 8,Madera,CA
T-15795121,Construction,3,735,2018-12-31 15:54:48,2019-09-01 22:00:00,40.956764,-96.388329,12051.0,238th St,Greenwood,NE
T-15798946,Construction,3,407,2018-12-31 10:10:22,2019-12-31 18:00:00,33.531231,-86.800247,,I-20 E,Birmingham,AL
T-16651219,Construction,2,701,2018-12-31 12:21:33,2019-04-02 08:58:00,40.717018,-73.956429,200.0,N 7th St,Brooklyn,NY
T-16665362,Construction,2,701,2018-12-31 12:00:00,2019-04-26 23:00:00,33.24855,-97.116127,1199.0,Laguna Dr,Denton,TX
T-16665364,Construction,2,701,2018-12-31 12:00:00,2019-04-26 23:00:00,33.249409,-97.115532,1161.0,Kings Row,Denton,TX
T-17475152,Construction,3,641,2018-12-31 10:43:35,2019-04-02 03:59:00,34.195366,-80.325584,,I-20 W,Bishopville,SC
T-17512270,Construction,2,701,2018-12-31 12:00:00,2019-03-06 00:00:00,33.237148,-97.111702,1696.0,Mistywood Ln,Denton,TX
T-17512272,Construction,2,701,2018-12-31 12:00:00,2019-03-06 00:00:00,33.239052,-97.111687,2598.0,Royal Ln,Denton,TX
T-17512273,Construction,2,701,2018-12-31 12:00:00,2019-03-29 23:00:00,33.24696,-97.11721,1625.0,E Sherman Dr,Denton,TX
T-17512275,Construction,2,701,2018-12-31 12:00:00,2019-03-29 23:00:00,33.247761,-97.116661,1769.0,E Sherman Dr,Denton,TX
T-18302366,Construction,2,401,2018-12-31 09:23:23,2019-03-01 05:00:00,41.832539,-70.770569,379.0,Meadow St,Carver,MA
T-18303819,Flow-Incident,2,401,2018-12-31 09:01:52,2019-03-01 10:02:00,40.71246,-74.007721,236.0,Broadway,New York,NY
T-18317846,Construction,2,802,2018-12-31 12:00:00,2019-03-01 00:00:00,33.21883,-97.155121,2043.0,Scripture St,Denton,TX
T-18397571,Construction,2,701,2018-12-31 11:00:00,2019-02-02 04:59:00,39.696041,-86.017853,8501.0,E Thompson Rd,Indianapolis,IN
T-18397572,Construction,2,701,2018-12-31 11:00:00,2019-02-02 04:59:00,39.696041,-86.017853,8501.0,E Thompson Rd,Indianapolis,IN
T-18397597,Construction,2,701,2018-12-31 11:00:00,2019-02-11 04:59:00,39.77486,-86.085968,,N Riley Ave,Indianapolis,IN
T-18398108,Construction,2,735,2018-12-31 14:00:00,2019-02-15 23:00:00,38.042252,-84.490448,132.0,Eastern Ave,Lexington,KY
T-18398110,Construction,2,514,2018-12-31 14:00:00,2019-02-15 23:00:00,38.042351,-84.481499,367.0,Midland Ave,Lexington,KY
T-18401724,Construction,3,401,2018-12-31 09:50:31,2019-02-05 04:59:00,34.21159,-79.166725,8801.0,E Highway 76,Nichols,SC
T-18401726,Construction,2,735,2018-12-31 10:25:34,2019-02-01 04:59:00,34.273201,-80.095642,4899.0,Indian Branch Rd,Lamar,SC
T-18405247,Construction,2,735,2018-12-31 13:09:01,2019-01-31 18:00:00,30.158701,-92.023354,100.0,Yvette Marie Dr,Lafayette,LA
T-18405253,Construction,2,735,2018-12-31 12:30:48,2019-01-31 18:00:00,30.553511,-92.336472,6749.0,Chataignier Rd,Eunice,LA
T-18405254,Construction,2,735,2018-12-31 12:45:55,2019-01-31 18:00:00,31.39691,-92.399178,603.0,Paradise Rd,Ball,LA
T-18405486,Construction,2,401,2018-12-31 12:00:00,2019-02-01 00:00:00,33.16671,-97.107407,2402.0,Summit Ct,Denton,TX
T-18405489,Construction,2,701,2018-12-31 12:00:00,2019-02-02 00:00:00,33.200214,-97.121315,,Shady Oaks Dr,Denton,TX
T-18405492,Construction,2,701,2018-12-31 12:00:00,2019-02-01 00:00:00,33.208229,-97.133827,169.0,Maple St,Denton,TX
T-18405493,Construction,2,802,2018-12-31 12:00:00,2019-02-01 00:00:00,33.218922,-97.158699,2259.0,Scripture St,Denton,TX
T-18405494,Construction,2,701,2018-12-31 12:00:00,2019-02-01 00:00:00,33.22131,-97.13504,725.0,Bolivar St,Denton,TX
T-18405495,Construction,2,401,2018-12-31 12:00:00,2019-02-01 00:00:00,33.22768,-97.085342,,Prominence Pkwy,Denton,TX
T-18405498,Construction,2,401,2018-12-31 12:00:00,2019-02-01 00:00:00,33.249111,-97.154472,2161.0,Riney Rd,Denton,TX
T-18406611,Construction,2,24,2018-12-31 12:36:06,2019-01-31 18:00:00,29.687201,-90.990753,146.0,Carrol St,Gibson,LA
T-18406635,Construction,2,401,2018-12-31 13:04:27,2019-01-31 18:00:00,32.434818,-91.72644,998.0,Highway 3048,Rayville,LA
T-18407626,Construction,2,735,2018-12-31 13:12:33,2019-01-31 18:00:00,29.8668,-89.796463,1998.0,Gnell Dr,Saint Bernard,LA
T-18408585,Construction,2,735,2018-12-31 12:43:55,2019-01-31 18:00:00,31.53385,-92.945122,10012.0,Highway 119,Cloutierville,LA
T-18408586,Construction,2,401,2018-12-31 13:28:58,2019-01-31 18:00:00,32.532009,-93.80275,1363.0,Russell Rd,Shreveport,LA
T-18412139,Construction,2,701,2018-12-31 12:58:48,2019-02-01 02:00:00,43.70269,-124.093773,218.0,Fir Ave,Reedsport,OR
T-18414625,Construction,2,641,2018-12-31 07:30:38,2019-02-02 00:45:00,36.702045,-119.763725,2705.0,S Orange Ave,Fresno,CA
T-19198817,Construction,2,493,2018-12-31 14:00:00,2019-01-01 11:00:00,42.88826,-78.871223,52.0,E Huron St,Buffalo,NY
T-19198818,Construction,2,493,2018-12-31 14:00:00,2019-01-01 11:00:00,42.889912,-78.871933,48.0,E Chippewa St,Buffalo,NY
T-19198819,Construction,2,493,2018-12-31 14:00:00,2019-01-01 11:00:00,42.890331,-78.868385,168.0,Genesee St,Buffalo,NY
T-19198937,Construction,3,407,2018-12-31 10:16:54,2019-01-11 22:00:00,42.306122,-83.10688,,Casgrain St,Detroit,MI
T-19198945,Construction,3,407,2018-12-31 10:10:13,2019-01-25 22:00:00,42.391178,-83.005203,,Edsel Ford Fwy E,Detroit,MI
T-19199733,Construction,2,493,2018-12-31 21:00:00,2019-01-01 07:00:00,38.326714,-75.220154,,Baker St,Berlin,MD
T-19199750,Construction,2,500,2018-12-31 14:00:00,2019-01-04 20:00:00,40.13636,-75.012337,,Hilltop Rd,Feasterville Trevose,PA
T-19199770,Construction,2,493,2018-12-31 16:00:00,2019-01-01 07:00:00,40.754089,-73.992081,536.0,8th Ave,New York,NY
T-19199772,Construction,2,493,2018-12-31 16:00:00,2019-01-01 07:00:00,40.754711,-73.991631,298.0,W 38th St,New York,NY
T-19199773,Construction,2,493,2018-12-31 16:00:00,2019-01-01 07:00:00,40.755329,-73.99118,300.0,W 39th St,New York,NY
T-19199774,Construction,2,493,2018-12-31 16:00:00,2019-01-01 07:00:00,40.755951,-73.990723,299.0,W 40th St,New York,NY
T-19199775,Construction,2,493,2018-12-31 16:00:00,2019-01-01 07:00:00,40.75658,-73.990273,641.0,8th Ave,New York,NY
T-19199776,Construction,2,493,2018-12-31 16:00:00,2019-01-01 07:00:00,40.757221,-73.989799,298.0,W 42nd St,New York,NY
T-19199777,Construction,2,401,2018-12-31 10:00:00,2019-01-01 08:00:00,40.757389,-73.982246,,W 46th St,New York,NY
T-19199778,Construction,2,493,2018-12-31 09:00:00,2019-01-01 07:00:00,40.757889,-73.989304,677.0,8th Ave,New York,NY
T-19199779,Construction,2,401,2018-12-31 10:00:00,2019-01-01 08:00:00,40.75803,-73.981773,1200.0,Avenue of the Americas,New York,NY
T-19199780,Construction,2,493,2018-12-31 09:00:00,2019-01-01 07:00:00,40.758541,-73.988831,698.0,8th Ave,New York,NY
T-19199781,Construction,2,493,2018-12-31 09:00:00,2019-01-01 07:00:00,40.759159,-73.98838,298.0,W 45th St,New York,NY
T-19199782,Construction,2,401,2018-12-31 10:00:00,2019-01-01 08:00:00,40.759201,-73.984596,196.0,W 47th St,New York,NY
T-19199783,Construction,2,493,2018-12-31 09:00:00,2019-01-01 07:00:00,40.759789,-73.987923,742.0,8th Ave,New York,NY
T-19199784,Construction,2,493,2018-12-31 09:00:00,2019-01-01 07:00:00,40.760399,-73.987442,770.0,8th Ave,New York,NY
T-19199786,Construction,2,493,2018-12-31 16:00:00,2019-01-01 07:00:00,40.761639,-73.986526,296.0,W 49th St,New York,NY
T-19199787,Construction,2,493,2018-12-31 16:00:00,2019-01-01 07:00:00,40.76223,-73.989861,398.0,W 48th St,New York,NY
T-19199788,Construction,2,493,2018-12-31 16:00:00,2019-01-01 07:00:00,40.76228,-73.986069,822.0,8th Ave,New York,NY
T-19199789,Construction,2,493,2018-12-31 16:00:00,2019-01-01 07:00:00,40.762901,-73.985619,848.0,8th Ave,New York,NY
T-19199790,Construction,2,493,2018-12-31 16:00:00,2019-01-01 07:00:00,40.763531,-73.985168,858.0,8th Ave,New York,NY
T-19199791,Construction,2,493,2018-12-31 16:00:00,2019-01-01 07:00:00,40.764172,-73.984711,888.0,8th Ave,New York,NY
T-19199792,Construction,2,493,2018-12-31 16:00:00,2019-01-01 07:00:00,40.76479,-73.984261,297.0,W 54th St,New York,NY
T-19199793,Construction,2,493,2018-12-31 16:00:00,2019-01-01 07:00:00,40.7654,-73.983772,297.0,W 55th St,New York,NY
T-19199795,Construction,2,493,2018-12-31 16:00:00,2019-01-01 07:00:00,40.766121,-73.983528,947.0,8th Ave,New York,NY
T-19199796,Construction,2,493,2018-12-31 16:00:00,2019-01-01 07:00:00,40.766708,-73.982819,245.0,W 57th St,New York,NY
T-19199797,Construction,2,493,2018-12-31 18:00:00,2019-01-01 07:00:00,40.766911,-73.979057,999.0,7th Ave,New York,NY
T-19199798,Construction,2,493,2018-12-31 16:00:00,2019-01-01 07:00:00,40.76741,-73.982353,986.0,8th Ave,New York,NY
T-19199799,Construction,2,493,2018-12-31 16:00:00,2019-01-01 07:00:00,40.768101,-73.981895,,Columbus Cir,New York,NY
T-19199800,Construction,2,493,2018-12-31 18:00:00,2019-01-01 07:00:00,40.768101,-73.981895,,Columbus Cir,New York,NY
T-19200042,Construction,2,407,2018-12-31 11:21:57,2019-01-03 00:00:00,39.98241,-80.740349,,Central Ave,Shadyside,OH
T-19200050,Construction,2,401,2018-12-31 15:00:00,2019-01-01 07:00:00,40.442181,-80.004166,623.0,Stanwix St,Pittsburgh,PA
T-19200051,Construction,2,401,2018-12-31 15:00:00,2019-01-01 07:00:00,40.442497,-79.999832,699.0,Liberty Ave,Pittsburgh,PA
T-19200052,Construction,2,401,2018-12-31 15:00:00,2019-01-01 07:00:00,40.442699,-79.998947,297.0,8th St,Pittsburgh,PA
T-19200053,Construction,2,401,2018-12-31 15:00:00,2019-01-01 07:00:00,40.44294,-79.997971,299.0,9th St,Pittsburgh,PA
T-19200054,Construction,2,401,2018-12-31 15:00:00,2019-01-01 07:00:00,40.443569,-80.004707,331.0,Fort Duquesne Blvd,Pittsburgh,PA
T-19200055,Construction,2,401,2018-12-31 15:00:00,2019-01-01 07:00:00,40.443741,-80.003693,100.0,Cecil Pl,Pittsburgh,PA
T-19200343,Construction,2,701,2018-12-31 11:00:00,2019-02-02 04:59:00,39.696041,-86.017853,8501.0,E Thompson Rd,Indianapolis,IN
T-19200512,Construction,2,401,2018-12-31 14:00:00,2019-02-01 23:00:00,38.087181,-84.458763,2301.0,Shandon Dr,Lexington,KY
T-19200513,Flow-Incident,3,401,2018-12-31 15:49:28,2019-01-07 15:18:00,38.374821,-82.605957,12042.0,US Route 23,Catlettsburg,KY
T-19200557,Flow-Incident,2,402,2018-12-31 13:58:11,2019-01-03 09:27:00,35.296841,-82.580467,1198.0,Etowah School Rd,Hendersonville,NC
T-19200558,Flow-Incident,2,402,2018-12-31 13:59:15,2019-01-03 14:28:00,35.302719,-82.560661,3996.0,Hebron Rd,Hendersonville,NC
T-19200559,Flow-Incident,2,402,2018-12-31 14:02:33,2019-01-03 09:32:00,35.379398,-82.549248,4078.0,Haywood Rd,Mills River,NC
T-19200560,Flow-Incident,2,402,2018-12-31 14:00:33,2019-01-03 10:29:00,35.385521,-82.561432,4138.0,Haywood Rd,Mills River,NC
T-19200561,Flow-Incident,2,402,2018-12-31 14:01:29,2019-01-03 11:30:00,35.407349,-82.525352,701.0,Butler Bridge Rd,Fletcher,NC
T-19200623,Flow-Incident,2,401,2018-12-31 21:00:00,2019-01-01 11:00:00,35.224918,-80.846397,398.0,S Tryon St,Charlotte,NC
T-19200627,Construction,2,735,2018-12-31 14:00:00,2019-01-01 11:00:00,35.233063,-80.849899,100.0,N Cedar St,Charlotte,NC
T-19200634,Flow-Incident,2,402,2018-12-31 15:13:26,2019-01-01 11:00:00,35.884331,-82.014503,,Orchard Rd,Marion,NC
T-19200640,Construction,2,701,2018-12-31 15:16:53,2019-01-07 04:59:00,36.589169,-81.067429,,Crab Orchard Rd,Galax,VA
T-19200644,Construction,2,401,2018-12-31 22:30:00,2019-01-01 17:30:00,37.271191,-79.939041,301.0,Market St SE,Roanoke,VA
T-19200645,Construction,3,401,2018-12-31 22:30:00,2019-01-01 17:30:00,37.271851,-79.940559,1.0,Campbell Ave SW,Roanoke,VA
T-19200646,Construction,2,401,2018-12-31 22:30:00,2019-01-01 17:30:00,37.272442,-79.93882,101.0,Salem Ave SE,Roanoke,VA
T-19200647,Construction,2,401,2018-12-31 22:30:00,2019-01-01 17:30:00,37.272449,-79.939262,100.0,Wall St SE,Roanoke,VA
T-19200648,Construction,2,701,2018-12-31 14:56:14,2019-01-07 04:59:00,37.31205,-82.164368,1001.0,Bull Creek Rd,Grundy,VA
T-19200733,Construction,2,401,2018-12-31 11:00:00,2019-01-01 11:00:00,35.772911,-78.639481,59.0,W Lenoir St,Raleigh,NC
T-19200734,Construction,2,401,2018-12-31 11:00:00,2019-01-01 11:00:00,35.77557,-78.638367,99.0,E Davie St,Raleigh,NC
T-19200735,Construction,2,401,2018-12-31 11:00:00,2019-01-01 11:00:00,35.776901,-78.638283,300.0,S Wilmington St,Raleigh,NC
T-19200985,Construction,2,401,2018-12-31 17:00:00,2019-01-01 07:00:00,28.54364,-81.368469,702.0,E Washington St,Orlando,FL
T-19200987,Construction,2,401,2018-12-31 22:00:00,2019-01-01 07:00:00,28.56809,-81.326492,4901.0,New Broad St,Orlando,FL
T-19201168,Construction,2,701,2018-12-31 13:28:28,2019-01-04 22:00:00,27.95137,-82.485031,2401.0,W State St,Tampa,FL
T-19201182,Construction,2,401,2018-12-31 23:00:00,2019-01-01 07:00:00,28.111521,-82.69648,4699.0,Aylesford Dr,Palm Harbor,FL
T-19201346,Construction,3,641,2018-12-31 09:31:49,2019-01-05 04:59:00,34.0243,-79.993111,,Lynches River Rd,Lynchburg,SC
T-19201347,Construction,2,735,2018-12-31 09:38:21,2019-01-31 04:59:00,34.433861,-79.269951,2000.0,Oliver Rd,Hamer,SC
T-19201708,Accident,3,201,2018-12-31 18:35:54,2019-01-01 06:36:01,38.441975,-88.953049,,I-57 N,Dix,IL
T-19201709,Construction,2,493,2018-12-31 14:57:06,2019-01-07 05:59:00,38.483391,-94.357262,402.0,W State Route A,Archie,MO
T-19201777,Construction,3,735,2018-12-31 16:00:02,2019-01-07 12:00:00,40.673489,-95.845627,103.0,Argo Ave,Nebraska City,NE
T-19201782,Construction,2,701,2018-12-31 16:10:18,2019-01-07 16:38:00,41.136429,-99.759644,498.0,S Washington Ave,Oconto,NE
T-19201789,Construction,2,701,2018-12-31 15:48:35,2019-01-02 23:00:00,41.286259,-96.29351,,US-275 W,Waterloo,NE
T-19201791,Construction,2,500,2018-12-31 15:00:00,2019-01-01 15:00:00,41.30938,-95.956558,3195.0,Ellison Ave,Omaha,NE
T-19201867,Construction,2,493,2018-12-31 06:01:00,2019-01-05 05:59:00,39.55685,-95.046288,,State Highway 273,Rushville,MO
T-19201892,Construction,2,493,2018-12-31 11:01:31,2019-01-06 23:59:00,42.33873,-88.004677,399.0,S US Highway 45,Grayslake,IL
T-19201893,Construction,2,493,2018-12-31 10:58:00,2019-01-06 23:59:00,42.346142,-87.913773,,Belvidere Rd,Gurnee,IL
T-19201894,Construction,2,514,2018-12-31 10:50:54,2019-01-06 23:59:00,42.370674,-87.896172,,Grand Ave,Gurnee,IL
T-19201895,Construction,2,493,2018-12-31 10:45:57,2019-01-06 23:59:00,42.384682,-87.826134,,Melvin Amstutz Expy,Waukegan,IL
T-19201896,Construction,2,701,2018-12-31 13:20:54,2019-01-07 13:49:00,42.42474,-97.097359,57185.0,Highway 20,Laurel,NE
T-19201897,Construction,2,493,2018-12-31 10:36:29,2019-01-06 23:59:00,42.425667,-88.003777,38734.0,N US Highway 45,Lake Villa,IL
T-19201898,Construction,2,493,2018-12-31 10:39:18,2019-01-06 23:59:00,42.425667,-88.003777,38734.0,N US Highway 45,Lake Villa,IL
T-19201899,Construction,2,701,2018-12-31 13:23:58,2019-01-04 06:00:00,42.448189,-96.575218,1500.0,N Bluff Rd,Jackson,NE
T-19201900,Construction,2,493,2018-12-31 10:23:40,2019-01-06 23:59:00,42.457329,-87.869553,2098.0,Kenosha Rd,Zion,IL
T-19201901,Construction,2,735,2018-12-31 10:22:27,2019-01-06 23:59:00,42.480381,-87.991478,42497.0,N Crawford Rd,Antioch,IL
T-19201903,Construction,2,701,2018-12-31 13:10:08,2019-01-04 06:00:00,42.896561,-99.750031,90330.0,US Highway 183,Springview,NE
T-19201930,Construction,2,736,2018-12-31 16:28:22,2019-01-08 06:00:00,41.588558,-93.621468,301.0,Grand Ave,Des Moines,IA
T-19201941,Construction,2,742,2018-12-31 13:30:28,2019-01-05 05:59:00,42.11964,-96.823227,,Highway 16,Pender,NE
T-19202122,Construction,2,401,2018-12-31 21:00:00,2019-01-01 06:15:00,30.259914,-97.749229,267.0,S 1st St,Austin,TX
T-19202123,Construction,2,401,2018-12-31 21:00:00,2019-01-01 06:15:00,30.26449,-97.757111,,W Riverside Dr,Austin,TX
T-19202135,Construction,2,701,2018-12-31 12:00:00,2019-01-26 00:00:00,33.190479,-97.187813,1902.0,Underwood Rd,Denton,TX
T-19202136,Construction,2,401,2018-12-31 10:59:41,2019-01-12 05:59:00,33.198261,-97.086487,1301.0,Bridges St,Denton,TX
T-19202139,Construction,2,701,2018-12-31 12:00:00,2019-01-02 00:00:00,33.215931,-97.115433,1417.0,E McKinney St,Denton,TX
T-19202142,Construction,2,701,2018-12-31 12:00:00,2019-01-11 00:00:00,33.237148,-97.111702,1696.0,Mistywood Ln,Denton,TX
T-19202155,Construction,2,500,2018-12-31 06:01:00,2019-01-19 05:59:00,35.406219,-97.51371,20.0,SW 59th St,Oklahoma City,OK
T-19202183,Construction,2,500,2018-12-31 06:01:00,2019-01-05 05:59:00,35.630268,-97.54953,2100.0,NW 157th St,Edmond,OK
T-19202308,Construction,2,493,2018-12-31 13:00:00,2019-01-01 09:00:00,30.68919,-88.03981,149.0,Church St,Mobile,AL
T-19202309,Construction,2,493,2018-12-31 13:00:00,2019-01-01 09:00:00,30.69294,-88.042198,151.0,Saint Francis St,Mobile,AL
T-19202310,Construction,2,493,2018-12-31 13:00:00,2019-01-01 09:00:00,30.69294,-88.042198,151.0,Saint Francis St,Mobile,AL
T-19202486,Construction,2,401,2018-12-31 13:00:00,2019-01-01 08:00:00,36.165939,-86.787407,,Rosa L Parks Blvd,Nashville,TN
T-19202487,Construction,2,401,2018-12-31 13:00:00,2019-01-01 08:00:00,36.166183,-86.788834,510.0,10th Cir N,Nashville,TN
T-19202488,Construction,2,401,2018-12-31 13:00:00,2019-01-01 08:00:00,36.167641,-86.787743,705.0,Rosa L Parks Blvd,Nashville,TN
T-19202491,Construction,2,401,2018-12-31 13:00:00,2019-01-01 08:00:00,36.168892,-86.783867,,5th Ave N,Nashville,TN
T-19202496,Construction,2,401,2018-12-31 13:00:00,2019-01-01 08:00:00,36.170139,-86.784691,500.0,Harrison St,Nashville,TN
T-19202499,Construction,2,401,2018-12-31 22:00:00,2019-01-01 08:00:00,36.173431,-86.785271,800.0,4th Ave N,Nashville,TN
T-19202500,Construction,2,401,2018-12-31 22:00:00,2019-01-01 08:00:00,36.174568,-86.784111,1014.0,3rd Ave N,Nashville,TN
T-19202501,Construction,2,401,2018-12-31 22:00:00,2019-01-01 08:00:00,36.174679,-86.787651,1109.0,5th Ave N,Nashville,TN
T-19202632,Construction,2,707,2018-12-31 10:20:44,2019-01-28 23:00:00,31.025591,-89.447433,7500.0,U S Highway 11,Lumberton,MS
T-19202633,Construction,2,500,2018-12-31 10:28:05,2019-01-03 00:00:00,31.252119,-89.278709,4938.0,US Highway 49,Hattiesburg,MS
T-19202635,Construction,2,701,2018-12-31 10:19:28,2019-01-02 23:00:00,32.467548,-88.722992,,Highway 493,Bailey,MS
T-19202898,Flow-Incident,2,1001,2018-12-31 14:54:28,2019-01-01 06:15:07,37.356251,-106.912643,8691.0,E Highway 160,Pagosa Springs,CO
T-19202900,Flow-Incident,2,1001,2018-12-31 10:44:19,2019-01-01 13:29:26,37.63652,-107.806664,49834.0,Highway 550,Durango,CO
T-19202901,Flow-Incident,3,240,2018-12-31 21:23:33,2019-01-01 06:19:50,37.654388,-112.826233,,UT-143,Brian Head,UT
T-19202907,Flow-Incident,2,1001,2018-12-31 10:50:08,2019-01-01 14:42:05,37.808208,-107.678101,,Highway 550,Silverton,CO
T-19202941,Flow-Incident,3,401,2018-12-31 09:04:35,2019-01-01 06:26:00,42.823669,-105.320221,,Bill Hall Rd,Douglas,WY
T-19202968,Flow-Incident,2,1001,2018-12-31 11:58:26,2019-01-01 14:29:23,38.927959,-107.425079,6365.0,Highway 133,Somerset,CO
T-19202983,Flow-Incident,2,1001,2018-12-31 14:10:47,2019-01-01 15:29:22,39.742348,-105.494247,,I-70 W,Idaho Springs,CO
T-19203003,Construction,2,701,2018-12-31 10:54:36,2019-01-08 00:01:00,39.791039,-104.977112,798.0,E 52nd Ave,Denver,CO
T-19203305,Construction,2,701,2018-12-31 14:30:00,2019-01-01 10:31:00,39.863506,-105.025108,,W 92nd Ave,Westminster,CO
T-19203350,Construction,2,493,2018-12-31 22:00:00,2019-01-01 08:01:00,41.131859,-104.81472,1502.0,Capitol Ave,Cheyenne,WY
T-19203761,Event,1,1502,2018-12-31 07:00:00,2019-01-01 06:59:00,33.44574,-112.071198,196.0,E Jackson St,Phoenix,AZ
T-19205104,Construction,2,493,2018-12-31 22:00:00,2019-01-01 08:01:00,43.61668,-116.198837,510.0,W Jefferson St,Boise,ID
T-19205174,Construction,2,708,2018-12-31 10:04:09,2019-01-02 14:03:00,47.30566,-124.253937,,State Highway 109,Taholah,WA
T-19205176,Flow-Incident,2,1001,2018-12-31 10:00:58,2019-01-02 11:00:00,47.381649,-120.594162,6174.0,US Highway 97,Peshastin,WA
T-19205284,Construction,2,493,2018-12-31 12:13:42,2019-01-21 02:00:00,45.404289,-122.758102,15998.0,SW 79th Ave,Portland,OR
T-19205285,Construction,2,493,2018-12-31 12:11:06,2019-01-21 02:00:00,45.415169,-122.755562,7603.0,SW Bonita Rd,Portland,OR
T-19205286,Construction,2,493,2018-12-31 12:08:11,2019-01-21 02:00:00,45.42754,-122.757813,7848.0,SW Hunziker St,Portland,OR
T-19205288,Construction,2,493,2018-12-31 12:16:55,2019-01-21 02:00:00,45.43626,-122.78286,11599.0,SW Tiedeman Ave,Portland,OR
T-19205289,Construction,2,493,2018-12-31 12:19:02,2019-01-21 02:00:00,45.436916,-122.746269,,SW Haines St,Portland,OR
T-19205290,Construction,2,493,2018-12-31 12:09:01,2019-01-21 03:00:00,45.444111,-122.770813,9004.0,SW Oak St,Portland,OR
T-19205298,Flow-Incident,2,1001,2018-12-31 10:04:20,2019-01-02 11:45:00,46.643909,-121.257477,41102.0,US Highway 12,Naches,WA
T-19205363,Flow-Incident,2,1001,2018-12-31 10:02:54,2019-01-03 11:30:00,48.627411,-118.122719,,Highway 20 E,Kettle Falls,WA
T-19205479,Construction,2,401,2018-12-31 08:01:00,2019-01-02 07:59:00,37.74913,-122.38549,1599.0,Michigan St,San Francisco,CA
T-19205480,Construction,2,401,2018-12-31 08:01:00,2019-01-02 07:59:00,37.74913,-122.38549,1599.0,Michigan St,San Francisco,CA
T-19205488,Construction,3,407,2018-12-31 12:35:08,2019-01-18 08:01:00,37.777409,-122.236549,,23rd Ave,Oakland,CA
T-19205490,Construction,2,701,2018-12-31 12:25:49,2019-01-09 07:59:00,37.7855,-122.391823,,I-80 W,San Francisco,CA
T-19205726,Flow-Incident,3,240,2018-12-31 22:29:36,2019-01-01 06:18:27,38.970119,-123.116531,13600.0,Mountain House Rd,Hopland,CA
T-19205855,Construction,2,493,2018-12-31 16:34:55,2019-01-06 07:59:00,33.982342,-118.298073,6301.0,Raymond Ave,Los Angeles,CA
T-19205856,Construction,2,493,2018-12-31 16:34:55,2019-01-06 07:59:00,34.025631,-118.196091,863.0,Esperanza St,Los Angeles,CA
T-19205857,Construction,2,493,2018-12-31 16:34:55,2019-01-06 07:59:00,34.032429,-118.198013,474.0,S Lorena St,Los Angeles,CA
T-19205861,Construction,2,493,2018-12-31 16:34:55,2019-01-06 07:59:00,34.060501,-118.429993,1397.0,Thayer Ave,Los Angeles,CA
T-19205864,Construction,2,493,2018-12-31 16:34:55,2019-01-06 07:59:00,34.075459,-118.213127,2500.0,Sichel St,Los Angeles,CA
T-19205865,Construction,2,493,2018-12-31 16:34:55,2019-01-06 07:59:00,34.096691,-118.260742,2442.0,Earl St,Los Angeles,CA
T-19205867,Construction,2,493,2018-12-31 16:34:55,2019-01-06 07:59:00,34.121601,-118.212318,1375.0,Armadale Ave,Los Angeles,CA
T-19205868,Construction,2,493,2018-12-31 16:34:55,2019-01-06 07:59:00,34.12228,-118.183449,6199.0,Myosotis St,Los Angeles,CA
T-19205872,Construction,2,401,2018-12-31 20:00:00,2019-01-01 22:00:00,34.145569,-118.160622,10.0,S Orange Grove Blvd,Pasadena,CA
T-19205873,Construction,2,401,2018-12-31 20:00:00,2019-01-01 22:00:00,34.14629,-118.101624,12.0,N Sierra Madre Blvd,Pasadena,CA
T-19205874,Construction,2,493,2018-12-31 16:34:55,2019-01-06 07:59:00,34.148899,-118.538567,18601.0,Pasadero Dr,Tarzana,CA
T-19205875,Construction,2,401,2018-12-31 20:00:00,2019-01-01 22:00:00,34.15435,-118.094093,,E Villa St,Pasadena,CA
T-19212680,Construction,2,493,2018-12-31 11:09:07,2019-01-06 23:59:00,42.197498,-88.05793,22498.0,W State Route 22,Lake Zurich,IL
T-19353549,Construction,2,701,2018-12-31 14:00:00,2019-01-11 02:01:00,43.61948,-116.324409,1499.0,Shamrock St,Boise,ID
T-19807961,Construction,2,739,2018-12-31 06:00:00,2019-01-31 06:01:00,33.413849,-111.650101,70.0,S Hawes Rd,Mesa,AZ
T-20311750,Congestion,1,71,2018-12-31 01:56:00,2018-12-31 02:36:25,42.98077,-78.833893,2694.0,Sheridan Dr,Tonawanda,NY
T-20311751,Accident,3,201,2018-12-31 02:45:17,2018-12-31 03:14:58,42.743877,-78.84507,,I-90 W,Hamburg,NY
T-20311816,Flow-Incident,2,409,2018-12-31 00:19:53,2018-12-31 00:48:53,42.963879,-71.414436,,NH-101 W,Manchester,NH
T-20311817,Congestion,1,71,2018-12-31 00:14:00,2018-12-31 01:04:07,42.082436,-71.279137,104.0,Washington St,Foxboro,MA
T-20311818,Congestion,2,73,2018-12-31 04:40:00,2018-12-31 05:21:03,41.765057,-70.657532,,MA-25 W,East Wareham,MA
T-20311907,Congestion,1,73,2018-12-31 00:18:00,2018-12-31 01:05:07,42.35239,-83.303658,,Rouge River Gateway Trl,Dearborn Heights,MI
T-20311908,Congestion,1,72,2018-12-31 01:33:00,2018-12-31 02:19:08,42.347752,-83.319672,28238.0,Edward N Hines Dr,Westland,MI
T-20311909,Congestion,2,70,2018-12-31 02:16:00,2018-12-31 02:56:07,42.234108,-83.269676,,Telegraph Rd,Taylor,MI
T-20311910,Congestion,2,70,2018-12-31 02:41:00,2018-12-31 03:21:07,42.234108,-83.269676,,Telegraph Rd,Taylor,MI
T-20311911,Congestion,1,70,2018-12-31 02:41:00,2018-12-31 03:21:07,42.688171,-84.283096,102.0,E Middle St,Williamston,MI
T-20311912,Congestion,2,71,2018-12-31 03:13:00,2018-12-31 03:57:07,42.40136,-83.218193,,Fenkell St,Detroit,MI
T-20311913,Congestion,2,70,2018-12-31 04:06:00,2018-12-31 04:46:08,42.528229,-83.285133,32718.0,Telegraph Rd,Franklin,MI
T-20311914,Event,1,1505,2018-12-31 05:00:00,2019-01-01 04:59:00,42.340912,-83.055214,2645.0,Woodward Ave,Detroit,MI
T-20311951,Congestion,1,70,2018-12-31 03:37:00,2018-12-31 04:18:04,42.215405,-73.177391,,Main Rd,Tyringham,MA
T-20311988,Congestion,1,74,2018-12-31 01:02:00,2018-12-31 01:48:26,41.973129,-74.214722,3209.0,State Route 28,Shokan,NY
T-20311989,Accident,3,241,2018-12-31 03:20:50,2018-12-31 03:49:30,42.693249,-73.828384,,I-90 E,Albany,NY
T-20311990,Congestion,2,74,2018-12-31 03:41:00,2018-12-31 04:27:21,42.090759,-75.739243,,I-86 E,Windsor,NY
T-20311991,Congestion,1,73,2018-12-31 03:56:00,2018-12-31 04:39:20,42.070179,-75.57605,,NY-17 E,Windsor,NY
T-20311992,Congestion,1,74,2018-12-31 04:53:00,2018-12-31 05:37:04,41.954716,-74.95359,,NY-17 E,Roscoe,NY
T-20311993,Congestion,2,76,2018-12-31 05:13:00,2018-12-31 05:58:16,41.898911,-74.810951,,NY-17 E,Livingston Manor,NY
T-20311994,Congestion,1,74,2018-12-31 05:10:00,2018-12-31 06:00:16,41.924637,-74.855644,,NY-17 E,Livingston Manor,NY
T-20311995,Congestion,1,73,2018-12-31 05:27:00,2018-12-31 06:09:21,41.857189,-74.76812,,NY-17 E,Parksville,NY
T-20311996,Broken-Vehicle,2,338,2018-12-31 05:59:51,2018-12-31 06:29:11,42.163151,-75.056229,2.0,Oxbow Hollow Rd,Walton,NY
T-20312076,Congestion,1,75,2018-12-31 03:46:00,2018-12-31 04:28:19,42.258133,-77.211411,,I-86 E,Campbell,NY
T-20312077,Congestion,2,75,2018-12-31 04:50:00,2018-12-31 05:30:24,43.380852,-76.120422,,I-81 N,Parish,NY
T-20312080,Congestion,2,71,2018-12-31 01:40:00,2018-12-31 02:21:06,44.143066,-69.089218,,Old County Rd,Rockport,ME
T-20312385,Construction,2,407,2018-12-31 00:00:56,2018-12-31 00:29:47,40.930119,-73.850014,,Cross County Pkwy W,Bronxville,NY
T-20312387,Accident,3,201,2018-12-31 00:07:12,2018-12-31 00:36:42,41.357861,-74.713005,,Route 6 and 209,Matamoras,PA
T-20312388,Congestion,1,73,2018-12-31 00:01:00,2018-12-31 00:49:30,40.791203,-73.823418,,Whitestone Expy S,Whitestone,NY
T-20312389,Congestion,1,74,2018-12-31 00:17:00,2018-12-31 00:57:29,40.599041,-74.007332,,Belt Pkwy E,Brooklyn,NY
T-20312390,Congestion,0,71,2018-12-31 00:20:00,2018-12-31 01:00:29,40.757912,-73.977654,2.0,E 49th St,New York,NY
T-20312391,Accident,3,201,2018-12-31 00:23:08,2018-12-31 00:52:02,40.736725,-73.855103,,Long Island Expy W,Forest Hills,NY
T-20312392,Accident,2,201,2018-12-31 00:21:29,2018-12-31 00:50:46,40.937679,-73.837822,,Sprain Brook Pkwy S,Bronxville,NY
T-20312393,Congestion,1,71,2018-12-31 00:24:00,2018-12-31 01:06:29,40.646641,-73.778954,,JFK Intl Airport,Jamaica,NY
T-20312394,Congestion,2,74,2018-12-31 00:24:00,2018-12-31 01:09:29,40.062374,-75.275253,,I-76 W,Gladwyne,PA
T-20312397,Congestion,2,70,2018-12-31 00:34:00,2018-12-31 01:15:30,40.024834,-75.227974,,I-76 E,Bala Cynwyd,PA
T-20312399,Congestion,1,71,2018-12-31 00:37:00,2018-12-31 01:17:28,40.755772,-73.979225,554.0,5th Ave,New York,NY
T-20312401,Congestion,1,72,2018-12-31 00:27:00,2018-12-31 01:25:29,40.729198,-73.878998,,Long Island Expy E,Elmhurst,NY
T-20312402,Congestion,1,72,2018-12-31 00:45:00,2018-12-31 01:36:28,40.741829,-73.957222,,Queens Midtown Tunl E,Long Island City,NY
T-20312403,Congestion,2,74,2018-12-31 00:24:00,2018-12-31 01:41:27,40.018963,-75.21814,,I-76 E,Bala Cynwyd,PA
T-20312404,Accident,3,201,2018-12-31 01:05:06,2018-12-31 01:34:44,41.13039,-74.167839,,I-87 S,Hillburn,NY
T-20312405,Congestion,2,75,2018-12-31 01:02:00,2018-12-31 01:48:26,39.593056,-74.79734,,Atlantic City Expy W,Hammonton,NJ
T-20312406,Congestion,2,71,2018-12-31 01:07:00,2018-12-31 01:48:26,40.278194,-74.224136,,NJ-18 S,Freehold,NJ
T-20312407,Congestion,2,75,2018-12-31 00:24:00,2018-12-31 01:52:26,40.038509,-75.248856,,I-76 E,Narberth,PA
T-20312408,Congestion,0,71,2018-12-31 01:01:00,2018-12-31 01:52:26,40.75132,-73.997849,365.0,9th Ave,New York,NY
T-20312409,Congestion,1,71,2018-12-31 01:05:00,2018-12-31 01:53:28,40.754128,-73.980415,2.0,W 43rd St,New York,NY
T-20312410,Congestion,1,74,2018-12-31 01:16:00,2018-12-31 01:57:27,39.979435,-75.204224,,I-76 E,Philadelphia,PA
T-20312411,Congestion,0,71,2018-12-31 01:20:00,2018-12-31 02:00:28,40.758457,-73.981453,1202.0,Avenue of the Americas,New York,NY
T-20312413,Accident,3,201,2018-12-31 01:26:36,2018-12-31 01:55:16,40.845654,-73.931679,,I-95 N,New York,NY
T-20312414,Congestion,1,70,2018-12-31 01:41:00,2018-12-31 02:28:27,40.761387,-73.986702,794.0,8th Ave,New York,NY
T-20312415,Congestion,2,71,2018-12-31 01:44:00,2018-12-31 02:30:26,40.845032,-73.907539,1720.0,Weeks Ave,Bronx,NY
T-20312416,Congestion,1,74,2018-12-31 01:54:00,2018-12-31 02:35:25,40.901924,-74.12384,,Bergen Passaic Expy W,Elmwood Park,NJ
T-20312417,Congestion,1,72,2018-12-31 01:58:00,2018-12-31 02:38:25,41.685165,-75.774796,3077.0,State Route 11,Hop Bottom,PA
T-20312418,Flow-Incident,3,401,2018-12-31 02:08:40,2018-12-31 02:37:34,39.427261,-75.234001,47.0,S Pearl St,Bridgeton,NJ
T-20312419,Accident,2,201,2018-12-31 02:07:06,2018-12-31 02:36:25,40.839748,-73.838486,,Hutchinson River Pkwy N,Bronx,NY
T-20312420,Congestion,2,71,2018-12-31 01:55:00,2018-12-31 02:50:31,40.700096,-73.986771,,Manhattan Brg S,Brooklyn,NY
T-20312421,Accident,3,201,2018-12-31 02:34:13,2018-12-31 03:03:44,41.062675,-73.860893,25.0,Sawyer Ave,Tarrytown,NY
T-20312422,Flow-Incident,3,409,2018-12-31 02:43:59,2018-12-31 03:11:26,39.959309,-75.177437,299.0,N Bonsall St,Philadelphia,PA
T-20312423,Congestion,2,74,2018-12-31 03:07:00,2018-12-31 03:48:22,41.599468,-74.54847,,NY-17 W,Wurtsboro,NY
T-20312424,Accident,2,247,2018-12-31 03:28:24,2018-12-31 03:57:52,39.996819,-75.153893,1375.0,W Glenwood Ave,Philadelphia,PA
T-20312425,Accident,3,201,2018-12-31 03:56:33,2018-12-31 04:26:09,41.053921,-75.3172,,I-80 W,Scotrun,PA
T-20312426,Event,1,1505,2018-12-31 05:00:00,2019-01-01 04:59:00,39.902122,-75.171402,3602.0,Zinkoff Blvd,Philadelphia,PA
T-20312427,Event,1,1505,2018-12-31 05:00:00,2019-01-01 04:59:00,39.902122,-75.171402,3602.0,Zinkoff Blvd,Philadelphia,PA
T-20312428,Event,1,1505,2018-12-31 05:00:00,2019-01-01 04:59:00,40.682636,-73.975266,624.0,Pacific St,Brooklyn,NY
T-20312429,Event,1,1505,2018-12-31 05:00:00,2019-01-01 04:59:00,40.750603,-73.993568,2.0,7th Ave,Manhattan,NY
T-20312430,Congestion,1,75,2018-12-31 04:57:00,2018-12-31 05:41:16,41.599468,-74.54847,,NY-17 W,Wurtsboro,NY
T-20312431,Congestion,2,73,2018-12-31 05:18:00,2018-12-31 06:00:16,41.60128,-74.553093,,NY-17 E,Wurtsboro,NY
T-20312432,Flow-Incident,4,401,2018-12-31 05:27:37,2018-12-31 05:56:31,40.855953,-73.917984,,Major Deegan Expy S,Bronx,NY
T-20312433,Flow-Incident,4,402,2018-12-31 05:55:22,2018-12-31 06:24:33,40.695995,-73.812912,,Van Wyck Expy N,Jamaica,NY
T-20312434,Flow-Incident,2,401,2018-12-31 05:56:51,2018-12-31 06:26:10,40.859612,-73.907768,2250.0,University Ave,Bronx,NY
T-20312435,Congestion,2,73,2018-12-31 05:51:00,2018-12-31 06:36:15,41.680485,-74.718353,,NY-17 E,Monticello,NY
T-20312441,Congestion,1,70,2018-12-31 01:14:00,2018-12-31 01:55:08,41.665642,-71.546097,564.0,Arnold Rd,Coventry,RI
T-20312442,Congestion,2,71,2018-12-31 04:14:00,2018-12-31 04:55:03,41.427143,-72.506516,,CT-9 S,Haddam,CT
T-20312584,Flow-Incident,4,401,2018-12-31 01:18:41,2018-12-31 01:46:41,40.428741,-80.028107,,I-376 E,Pittsburgh,PA
T-20312585,Congestion,3,73,2018-12-31 01:26:00,2018-12-31 02:06:41,39.658028,-79.658119,,I-68 W,Bruceton Mills,WV
T-20312586,Congestion,1,71,2018-12-31 01:20:00,2018-12-31 02:20:44,40.432625,-80.028107,,PA-51 S,Pittsburgh,PA
T-20312587,Congestion,1,70,2018-12-31 02:14:00,2018-12-31 02:54:38,39.325062,-80.944618,3449.0,Mountain Dr,Pennsboro,WV
T-20312588,Congestion,3,74,2018-12-31 02:26:00,2018-12-31 03:06:40,39.67754,-79.378487,,I-68 E,Friendsville,MD
T-20312589,Congestion,2,70,2018-12-31 02:30:00,2018-12-31 03:11:38,39.699898,-79.313484,,I-68 E,Grantsville,MD
T-20312590,Congestion,3,74,2018-12-31 02:31:00,2018-12-31 03:11:38,39.700573,-79.295502,,I-68 E,Accident,MD
T-20312591,Congestion,1,71,2018-12-31 02:20:00,2018-12-31 03:12:38,40.433685,-80.029259,,PA-51 S,Pittsburgh,PA
T-20312592,Congestion,2,76,2018-12-31 03:21:00,2018-12-31 04:11:38,37.875179,-79.309219,,I-64 W,Fairfield,VA
T-20312593,Congestion,2,71,2018-12-31 04:35:00,2018-12-31 05:15:36,39.78833,-81.35218,25947.0,Woodsfield Rd,Summerfield,OH
T-20312594,Congestion,3,72,2018-12-31 05:31:00,2018-12-31 06:12:35,39.658764,-79.812675,,I-68 E,Morgantown,WV
T-20312903,Accident,3,201,2018-12-31 00:00:35,2018-12-31 00:29:50,38.081917,-78.473839,,Seminole Trl,Charlottesville,VA
T-20312904,Accident,2,247,2018-12-31 00:02:29,2018-12-31 00:31:40,41.043629,-78.394547,15191.0,Clearfield Shawville Hwy,Clearfield,PA
T-20312905,Flow-Incident,1,214,2018-12-31 00:03:00,2018-12-31 00:43:43,38.329586,-77.499855,,I-95 N,Fredericksburg,VA
T-20312907,Congestion,1,74,2018-12-31 00:26:00,2018-12-31 01:06:40,38.415512,-77.426376,,I-95 N,Stafford,VA
T-20312908,Congestion,2,74,2018-12-31 00:28:00,2018-12-31 01:09:40,38.937843,-76.8554,,Capital Beltway N,Lanham,MD
T-20312909,Construction,3,505,2018-12-31 00:40:03,2018-12-31 01:09:27,39.438316,-76.633865,,I-83 N,Lutherville Timonium,MD
T-20312910,Congestion,1,73,2018-12-31 00:34:00,2018-12-31 01:24:44,38.874439,-76.976913,,Anacostia Fwy N,Washington,DC
T-20312911,Congestion,1,71,2018-12-31 00:49:00,2018-12-31 01:35:40,38.929089,-77.054764,,Hawthorne St NW,Washington,DC
T-20312912,Congestion,2,70,2018-12-31 00:50:00,2018-12-31 01:47:43,39.2729,-76.629433,,Haines St,Baltimore,MD
T-20312913,Congestion,1,75,2018-12-31 01:19:00,2018-12-31 02:00:40,38.982277,-76.877052,,Capital Beltway N,Greenbelt,MD
T-20312914,Congestion,2,73,2018-12-31 01:04:00,2018-12-31 02:03:41,39.259689,-76.567581,,Baltimore Harbor Tunnel,Baltimore,MD
T-20312915,Congestion,2,70,2018-12-31 01:09:00,2018-12-31 02:05:42,39.28809,-76.622223,34.0,S Paca St,Baltimore,MD
T-20312916,Congestion,2,71,2018-12-31 01:33:00,2018-12-31 02:13:40,38.726109,-77.281403,8516.0,Ox Rd,Fairfax Station,VA
T-20312917,Congestion,1,70,2018-12-31 01:41:00,2018-12-31 02:21:41,39.457932,-76.797218,12201.0,Owings Mills Blvd,Reisterstown,MD
T-20312918,Congestion,1,75,2018-12-31 02:10:00,2018-12-31 02:51:40,38.987511,-76.889725,,Baltimore Washington Pkwy N,Lanham,MD
T-20312919,Congestion,1,75,2018-12-31 01:55:00,2018-12-31 02:51:40,39.040077,-76.848328,,Baltimore Washington Pkwy N,Laurel,MD
T-20312920,Congestion,1,74,2018-12-31 02:11:00,2018-12-31 02:51:40,40.048111,-78.11924,,I-76 W,Wells Tannery,PA
T-20312921,Congestion,2,71,2018-12-31 02:16:00,2018-12-31 03:00:40,38.89996,-77.193466,,Custis Memorial Pkwy E,Falls Church,VA
T-20312922,Congestion,1,71,2018-12-31 02:19:00,2018-12-31 02:59:38,39.279804,-76.623886,,Russell St,Baltimore,MD
T-20312923,Flow-Incident,3,240,2018-12-31 02:20:12,2018-12-31 02:48:11,40.15337,-76.088608,524.0,Gristmill Rd,Ephrata,PA
T-20312924,Accident,2,201,2018-12-31 02:22:02,2018-12-31 02:51:30,40.616699,-77.748932,699.0,Greenwood Rd,Belleville,PA
T-20312925,Congestion,2,75,2018-12-31 02:30:00,2018-12-31 03:11:38,39.696442,-78.520897,,I-68 E,Flintstone,MD
T-20312926,Flow-Incident,3,240,2018-12-31 02:39:44,2018-12-31 03:08:54,38.839661,-76.025917,30250.0,Rabbit Hill Rd,Easton,MD
T-20312927,Congestion,3,70,2018-12-31 02:54:00,2018-12-31 03:42:37,38.900509,-77.188599,,Custis Memorial Pkwy E,Falls Church,VA
T-20312928,Congestion,1,71,2018-12-31 03:03:00,2018-12-31 03:49:38,38.780693,-76.997566,7965.0,Indian Head Hwy,Oxon Hill,MD
T-20312929,Accident,3,203,2018-12-31 03:16:13,2018-12-31 03:45:19,38.374008,-77.462486,,I-95 N,Fredericksburg,VA
T-20312930,Lane-Blocked,2,475,2018-12-31 03:18:19,2018-12-31 03:46:52,40.050079,-78.513649,,I-70 E,Bedford,PA
T-20312931,Congestion,1,70,2018-12-31 03:18:00,2018-12-31 04:02:37,39.447025,-77.384804,1966.0,Monocacy Blvd,Frederick,MD
T-20312932,Congestion,2,75,2018-12-31 03:22:00,2018-12-31 04:09:37,38.376202,-77.459656,,I-95 N,Fredericksburg,VA
T-20312933,Flow-Incident,3,240,2018-12-31 03:35:25,2018-12-31 04:04:41,38.798943,-77.005432,120.0,MGM National Ave,Oxon Hill,MD
T-20312934,Broken-Vehicle,3,211,2018-12-31 03:38:03,2018-12-31 04:07:16,40.217178,-76.787811,,I-283 S,Middletown,PA
T-20312935,Congestion,1,76,2018-12-31 04:30:00,2018-12-31 05:13:38,40.007912,-76.604401,,Lincoln Hwy E,York,PA
T-20312963,Congestion,2,76,2018-12-31 00:06:00,2018-12-31 00:48:38,40.05563,-85.615906,,I-69 S,Anderson,IN
T-20312964,Congestion,2,76,2018-12-31 01:14:00,2018-12-31 02:06:39,40.348209,-86.768288,,I-65 N,Lafayette,IN
T-20312965,Congestion,1,71,2018-12-31 01:28:00,2018-12-31 02:09:38,39.125622,-85.957703,,I-65 N,Columbus,IN
T-20312966,Accident,3,201,2018-12-31 02:48:06,2018-12-31 03:17:40,40.053261,-85.653702,,I-69 S,Anderson,IN
T-20312967,Congestion,3,71,2018-12-31 03:11:00,2018-12-31 03:51:38,38.301434,-85.861153,,I-64 E,New Albany,IN
T-20312968,Congestion,2,74,2018-12-31 04:27:00,2018-12-31 05:14:38,39.250462,-85.954453,,I-65 N,Columbus,IN
T-20312969,Congestion,2,70,2018-12-31 04:39:00,2018-12-31 05:20:39,40.301369,-86.720764,,I-65 N,Lafayette,IN
T-20312970,Congestion,2,71,2018-12-31 04:37:00,2018-12-31 05:23:38,38.229111,-85.751221,401.0,Woodbine St,Louisville,KY
T-20312971,Event,1,1502,2018-12-31 05:00:00,2019-01-01 04:59:00,39.763744,-86.155861,125.0,Bankers Life Ct,Center,IN
T-20312972,Congestion,1,70,2018-12-31 04:57:00,2018-12-31 05:38:38,40.559422,-86.934441,,I-65 N,West Lafayette,IN
T-20312995,Flow-Incident,4,240,2018-12-31 00:00:56,2018-12-31 00:45:32,39.184013,-84.483559,,I-75 N,Cincinnati,OH
T-20312996,Congestion,3,70,2018-12-31 00:30:00,2018-12-31 01:12:38,39.186111,-84.482758,,I-75 S,Cincinnati,OH
T-20312997,Congestion,2,70,2018-12-31 03:25:00,2018-12-31 04:05:39,38.677689,-83.632851,5952.0,US Highway 52,Manchester,OH
T-20312998,Congestion,2,71,2018-12-31 05:40:00,2018-12-31 06:20:38,40.168568,-83.223946,10846.0,US Highway 42,Marysville,OH
T-20313083,Broken-Vehicle,3,211,2018-12-31 00:00:31,2018-12-31 00:30:13,35.019032,-85.383057,,I-24 W,Chattanooga,TN
T-20313085,Congestion,1,71,2018-12-31 00:04:00,2018-12-31 00:47:39,35.70541,-83.523514,995.0,River Rd,Gatlinburg,TN
T-20313087,Congestion,1,73,2018-12-31 00:12:00,2018-12-31 00:52:38,35.813923,-83.578201,2298.0,Parkway,Pigeon Forge,TN
T-20313088,Congestion,1,75,2018-12-31 00:10:00,2018-12-31 00:52:58,35.394768,-82.56897,4065.0,Boylston Hwy,Mills River,NC
T-20313089,Congestion,1,73,2018-12-31 00:23:00,2018-12-31 01:03:39,35.814556,-83.578217,2278.0,Parkway,Pigeon Forge,TN
T-20313090,Congestion,1,74,2018-12-31 00:28:00,2018-12-31 01:09:39,35.834461,-83.57235,1603.0,Parkway,Sevierville,TN
T-20313091,Congestion,1,76,2018-12-31 00:26:00,2018-12-31 01:07:38,37.699657,-84.317535,,I-75 S,Richmond,KY
T-20313093,Congestion,1,72,2018-12-31 00:43:00,2018-12-31 01:23:40,35.802746,-83.574379,2682.0,Parkway,Pigeon Forge,TN
T-20313094,Congestion,2,74,2018-12-31 00:51:00,2018-12-31 01:32:59,35.255398,-82.351692,,I-26 W,Saluda,NC
T-20313095,Congestion,1,72,2018-12-31 01:12:00,2018-12-31 01:53:38,35.71246,-83.515778,690.0,Parkway,Gatlinburg,TN
T-20313096,Congestion,1,75,2018-12-31 03:15:00,2018-12-31 03:57:38,36.867069,-83.837677,2895.0,Cumberland Gap Pkwy,Barbourville,KY
T-20313097,Congestion,2,70,2018-12-31 04:38:00,2018-12-31 05:18:55,35.366158,-83.251389,1841.0,US Highway 441 S,Sylva,NC
T-20313132,Flow-Incident,3,240,2018-12-31 00:51:56,2018-12-31 01:20:57,35.195805,-81.391083,,I-85 S,Kings Mountain,NC
T-20313133,Congestion,1,74,2018-12-31 01:45:00,2018-12-31 02:26:56,36.003033,-79.827675,,US-220 S,Greensboro,NC
T-20313134,Congestion,2,72,2018-12-31 02:33:00,2018-12-31 03:13:56,36.002037,-80.26329,5059.0,Peters Creek Pkwy,Winston Salem,NC
T-20313135,Congestion,0,74,2018-12-31 02:38:00,2018-12-31 03:19:56,35.594879,-80.867149,521.0,River Hwy,Mooresville,NC
T-20313136,Congestion,2,70,2018-12-31 04:52:00,2018-12-31 05:33:54,36.112164,-80.305725,5336.0,Silas Creek Pkwy,Winston Salem,NC
T-20313137,Event,1,1502,2018-12-31 05:00:00,2019-01-01 04:59:00,35.225685,-80.839363,338.0,E 5th St,Charlotte,NC
T-20313187,Congestion,1,76,2018-12-31 00:12:00,2018-12-31 00:53:59,35.891953,-77.935005,,I-95 N,Elm City,NC
T-20313188,Congestion,0,75,2018-12-31 03:27:00,2018-12-31 04:11:55,35.488464,-77.992958,,I-795 N,Pikeville,NC
T-20313189,Accident,3,201,2018-12-31 03:37:17,2018-12-31 04:06:17,37.527832,-77.30217,,I-64 E,Sandston,VA
T-20313190,Congestion,1,70,2018-12-31 04:10:00,2018-12-31 04:58:37,37.611645,-77.563789,,Three Chopt Rd,Henrico,VA
T-20313191,Congestion,0,70,2018-12-31 04:29:00,2018-12-31 05:09:36,37.603748,-77.559731,8888.0,Three Chopt Rd,Henrico,VA
T-20313192,Congestion,1,70,2018-12-31 04:49:00,2018-12-31 05:38:36,37.645538,-77.603775,11840.0,Three Chopt Rd,Henrico,VA
T-20313193,Congestion,1,74,2018-12-31 05:14:00,2018-12-31 06:02:54,35.253151,-75.59639,51412.0,NC Highway 12,Frisco,NC
T-20313356,Congestion,1,72,2018-12-31 00:13:00,2018-12-31 00:54:27,26.651197,-80.153893,7009.0,Forest Hill Blvd,West Palm Beach,FL
T-20313357,Congestion,1,72,2018-12-31 00:38:00,2018-12-31 01:18:26,26.651197,-80.153893,7009.0,Forest Hill Blvd,West Palm Beach,FL
T-20313358,Congestion,0,71,2018-12-31 00:38:00,2018-12-31 01:19:28,26.015049,-80.117409,498.0,N Ocean Dr,Hollywood,FL
T-20313359,Congestion,2,70,2018-12-31 00:45:00,2018-12-31 01:26:27,26.974566,-80.179245,,I-95 S,Jupiter,FL
T-20313360,Congestion,1,72,2018-12-31 00:53:00,2018-12-31 01:47:26,27.03805,-82.219757,15000.0,Tamiami Trl,North Port,FL
T-20313361,Congestion,2,73,2018-12-31 01:00:00,2018-12-31 01:49:28,26.188419,-80.151833,,I-95 N,Fort Lauderdale,FL
T-20313362,Accident,2,201,2018-12-31 02:31:24,2018-12-31 03:00:27,26.795702,-80.13176,,Florida's Tpke S,Palm Beach Gardens,FL
T-20313454,Congestion,2,74,2018-12-31 00:03:00,2018-12-31 00:44:30,28.772188,-81.288841,,FL-417 S,Sanford,FL
T-20313455,Congestion,1,74,2018-12-31 00:08:00,2018-12-31 00:48:30,28.505718,-81.422844,,I-4 W,Orlando,FL
T-20313456,Congestion,1,71,2018-12-31 00:06:00,2018-12-31 00:48:30,28.76104,-81.270554,,FL-417 S,Sanford,FL
T-20313457,Congestion,1,75,2018-12-31 00:13:00,2018-12-31 00:54:27,28.931515,-82.112152,,I-75 S,Oxford,FL
T-20313458,Congestion,1,71,2018-12-31 00:12:00,2018-12-31 00:53:26,29.088284,-81.165123,,I-4 W,Daytona Beach,FL
T-20313459,Congestion,2,74,2018-12-31 00:47:00,2018-12-31 01:36:25,28.693146,-81.229111,,FL-417 S,Oviedo,FL
T-20313460,Congestion,1,71,2018-12-31 02:17:00,2018-12-31 03:11:23,28.577909,-81.45829,5592.0,Silver Star Rd,Orlando,FL
T-20313461,Congestion,1,71,2018-12-31 04:12:00,2018-12-31 05:08:21,28.52417,-81.344551,3067.0,Curry Ford Rd,Orlando,FL
T-20313462,Congestion,1,71,2018-12-31 05:06:00,2018-12-31 05:52:22,28.47226,-81.427109,4022.0,W Oak Ridge Rd,Orlando,FL
T-20313463,Congestion,2,75,2018-12-31 05:49:00,2018-12-31 06:34:20,28.749943,-81.265648,,FL-417 N,Sanford,FL
T-20313464,Congestion,1,70,2018-12-31 06:02:00,2018-12-31 06:42:19,28.756269,-81.347069,101.0,Rinehart Rd,Lake Mary,FL
T-20313592,Congestion,1,71,2018-12-31 00:01:00,2018-12-31 00:53:26,25.777901,-80.164612,198.0,MacArthur Cswy,Miami Beach,FL
T-20313594,Congestion,0,71,2018-12-31 00:22:00,2018-12-31 01:03:26,25.806105,-80.126038,2973.0,Indian Creek Dr,Miami Beach,FL
T-20313595,Congestion,2,72,2018-12-31 00:11:00,2018-12-31 01:06:26,25.693447,-80.345764,,S Dade Expy N,Miami,FL
T-20313596,Congestion,1,74,2018-12-31 00:29:00,2018-12-31 01:11:29,25.818132,-80.20649,,I-95 S,Miami,FL
T-20313597,Congestion,2,74,2018-12-31 01:00:00,2018-12-31 01:42:27,25.818132,-80.20649,,I-95 S,Miami,FL
T-20313598,Congestion,2,76,2018-12-31 00:59:00,2018-12-31 01:48:29,25.203266,-80.419891,,Overseas Hwy,Key Largo,FL
T-20313599,Flow-Incident,3,402,2018-12-31 01:28:15,2018-12-31 01:57:16,25.694906,-80.344124,,S Dade Expy N,Miami,FL
T-20313600,Broken-Vehicle,2,211,2018-12-31 01:35:44,2018-12-31 02:04:30,25.784735,-80.236946,,Dolphin Expy W,Miami,FL
T-20313601,Congestion,1,70,2018-12-31 02:25:00,2018-12-31 03:05:24,25.70089,-80.370132,,FL-986,Miami,FL
T-20313602,Congestion,1,71,2018-12-31 03:05:00,2018-12-31 03:46:24,25.70089,-80.370132,,FL-986,Miami,FL
T-20313780,Congestion,0,73,2018-12-31 00:07:00,2018-12-31 00:48:30,27.968948,-82.829002,485.0,S Gulfview Blvd,Clearwater Beach,FL
T-20313784,Congestion,0,71,2018-12-31 00:19:00,2018-12-31 01:05:27,28.337191,-81.403839,2980.0,N Orange Blossom Trl,Kissimmee,FL
T-20313785,Congestion,0,72,2018-12-31 00:29:00,2018-12-31 01:10:30,28.421438,-81.470657,,Beachline Expy,Orlando,FL
T-20313787,Congestion,2,74,2018-12-31 00:34:00,2018-12-31 01:14:27,28.115461,-81.6399,35372.0,Highway 27,Haines City,FL
T-20313788,Congestion,1,74,2018-12-31 00:58:00,2018-12-31 01:39:25,28.288666,-81.587112,,I-4 W,Kissimmee,FL
T-20313789,Accident,3,201,2018-12-31 00:53:19,2018-12-31 01:23:19,27.939516,-82.324509,2405.0,W Brandon Blvd,Brandon,FL
T-20313790,Congestion,1,71,2018-12-31 01:01:00,2018-12-31 01:47:26,28.159986,-80.641869,3224.0,N Harbor City Blvd,Melbourne,FL
T-20313791,Congestion,1,72,2018-12-31 01:03:00,2018-12-31 01:51:28,28.22044,-82.69117,4301.0,Rowan Rd,New Port Richey,FL
T-20313792,Congestion,1,72,2018-12-31 00:06:00,2018-12-31 01:50:29,28.336529,-81.592567,7647.0,W Irlo Bronson Memorial Hwy,Kissimmee,FL
T-20313793,Congestion,1,72,2018-12-31 01:25:00,2018-12-31 02:05:26,28.451469,-81.136589,,Beachline Expy,Orlando,FL
T-20313794,Congestion,1,70,2018-12-31 01:33:00,2018-12-31 02:14:26,27.964769,-82.408592,,I-4 E,Tampa,FL
T-20313795,Congestion,1,75,2018-12-31 01:35:00,2018-12-31 02:16:24,28.290583,-81.585304,,I-4 W,Kissimmee,FL
T-20313796,Congestion,1,71,2018-12-31 01:34:00,2018-12-31 02:27:23,28.116385,-80.623924,461.0,N Harbor City Blvd,Melbourne,FL
T-20313797,Congestion,0,73,2018-12-31 01:58:00,2018-12-31 02:38:23,28.120346,-80.630791,829.0,N Harbor City Blvd,Melbourne,FL
T-20313798,Congestion,0,72,2018-12-31 02:04:00,2018-12-31 02:45:23,28.088428,-80.607338,1300.0,S Harbor City Blvd,Melbourne,FL
T-20313799,Congestion,1,74,2018-12-31 02:39:00,2018-12-31 03:19:25,28.288666,-81.587112,,I-4 W,Kissimmee,FL
T-20313800,Congestion,1,71,2018-12-31 02:44:00,2018-12-31 03:27:23,28.092445,-80.609383,1055.0,S Harbor City Blvd,Melbourne,FL
T-20313801,Congestion,1,74,2018-12-31 02:48:00,2018-12-31 03:29:23,28.287552,-81.588158,,I-4 W,Kissimmee,FL
T-20313802,Congestion,1,72,2018-12-31 03:00:00,2018-12-31 03:48:22,28.119225,-80.630203,733.0,N Harbor City Blvd,Melbourne,FL
T-20313803,Congestion,1,71,2018-12-31 03:20:00,2018-12-31 04:09:22,28.218082,-82.692581,4039.0,Rowan Rd,New Port Richey,FL
T-20313804,Congestion,2,75,2018-12-31 03:08:00,2018-12-31 04:15:23,28.381762,-81.500626,,I-4 E,Orlando,FL
T-20313805,Congestion,1,75,2018-12-31 03:39:00,2018-12-31 04:21:22,28.381317,-81.501411,,I-4 W,Orlando,FL
T-20313806,Congestion,0,73,2018-12-31 03:45:00,2018-12-31 04:29:24,28.098936,-82.397141,,County Hwy-581,Tampa,FL
T-20313807,Congestion,1,71,2018-12-31 03:26:00,2018-12-31 04:30:24,28.249769,-82.698692,6298.0,Rowan Rd,New Port Richey,FL
T-20313808,Congestion,1,71,2018-12-31 03:48:00,2018-12-31 04:32:23,28.156361,-80.641197,2987.0,N Harbor City Blvd,Melbourne,FL
T-20313809,Congestion,1,70,2018-12-31 03:09:00,2018-12-31 04:31:21,28.385752,-81.506119,,County Road 535,Orlando,FL
T-20313810,Congestion,2,72,2018-12-31 04:03:00,2018-12-31 04:44:21,27.987307,-82.377029,,I-4 W,Tampa,FL
T-20313811,Congestion,0,72,2018-12-31 04:06:00,2018-12-31 04:46:21,28.143602,-82.353279,,Bruce B Downs Blvd,Tampa,FL
T-20313812,Congestion,0,74,2018-12-31 04:09:00,2018-12-31 04:49:21,28.123844,-82.37204,,Bruce B Downs Blvd,Tampa,FL
T-20313813,Congestion,1,70,2018-12-31 03:55:00,2018-12-31 04:48:21,28.33289,-81.586823,7477.0,W Irlo Bronson Memorial Hwy,Kissimmee,FL
T-20313814,Congestion,1,72,2018-12-31 04:05:00,2018-12-31 04:52:21,28.165571,-80.643997,3615.0,N Harbor City Blvd,Melbourne,FL
T-20313815,Congestion,0,73,2018-12-31 04:24:00,2018-12-31 05:11:20,28.240328,-82.693886,5604.0,Rowan Rd,New Port Richey,FL
T-20313816,Congestion,1,70,2018-12-31 06:05:00,2018-12-31 06:45:20,27.989229,-82.133232,1500.0,YMCA Pl,Plant City,FL
T-20313985,Congestion,1,76,2018-12-31 00:03:00,2018-12-31 00:44:59,34.49699,-79.31485,,I-95 N,Hamer,SC
T-20313986,Congestion,2,73,2018-12-31 00:06:00,2018-12-31 00:46:58,34.110611,-79.3358,2737.0,S Highway 501,Marion,SC
T-20313987,Congestion,2,72,2018-12-31 00:13:00,2018-12-31 00:53:59,34.447517,-82.702843,2645.0,Highway 29 S,Anderson,SC
T-20313988,Accident,3,201,2018-12-31 00:43:46,2018-12-31 01:13:00,34.152027,-83.646545,,GA-403 S,Jefferson,GA
T-20313989,Congestion,1,71,2018-12-31 00:41:00,2018-12-31 01:22:02,34.591629,-84.68824,1213.0,Highway 136,Chatsworth,GA
T-20313990,Congestion,2,73,2018-12-31 00:14:00,2018-12-31 01:27:00,34.153915,-83.64444,,I-85 S,Jefferson,GA
T-20313991,Congestion,1,70,2018-12-31 01:33:00,2018-12-31 02:13:58,34.936737,-81.903664,1055.0,Union St,Spartanburg,SC
T-20313992,Flow-Incident,4,402,2018-12-31 02:00:17,2018-12-31 02:29:25,33.746098,-84.429626,,GA-402 E,Atlanta,GA
T-20313993,Accident,3,201,2018-12-31 02:29:26,2018-12-31 02:59:09,34.073612,-80.949471,,I-20 E,Columbia,SC
T-20313994,Accident,3,201,2018-12-31 02:59:42,2018-12-31 03:29:21,34.067291,-81.142136,,Piney Grove Rd,Columbia,SC
T-20313995,Congestion,1,70,2018-12-31 03:01:00,2018-12-31 03:41:56,33.856564,-84.582481,1069.0,East-West Connector,Austell,GA
T-20313996,Congestion,1,71,2018-12-31 03:06:00,2018-12-31 03:46:56,33.845699,-84.534248,,E West Connector SE,Smyrna,GA
T-20313997,Congestion,2,70,2018-12-31 03:22:00,2018-12-31 04:02:55,33.929173,-84.550957,985.0,S Cobb Dr,Marietta,GA
T-20313998,Congestion,2,70,2018-12-31 05:36:00,2018-12-31 06:19:54,33.976891,-84.08963,,Duluth Hwy,Duluth,GA
T-20314052,Congestion,2,70,2018-12-31 00:36:00,2018-12-31 01:47:26,29.892868,-81.310966,,Cathedral Pl,Saint Augustine,FL
T-20314053,Congestion,2,76,2018-12-31 01:19:00,2018-12-31 02:00:26,30.937677,-81.686073,,GA-405 N,Woodbine,GA
T-20314054,Accident,3,201,2018-12-31 01:37:33,2018-12-31 02:07:06,30.250238,-81.589142,4651.0,Salisbury Rd,Jacksonville,FL
T-20314055,Lane-Blocked,3,61,2018-12-31 01:36:43,2018-12-31 02:06:21,30.430079,-81.656197,,Dunn Ave,Jacksonville,FL
T-20314056,Congestion,1,70,2018-12-31 05:11:00,2018-12-31 05:51:20,30.522203,-84.277451,3678.0,N Meridian Rd,Tallahassee,FL
T-20314112,Congestion,1,70,2018-12-31 00:15:00,2018-12-31 00:56:31,31.19239,-81.540329,,GA-405 S,Brunswick,GA
T-20314113,Congestion,1,75,2018-12-31 00:27:00,2018-12-31 01:08:26,32.23893,-81.147011,,I-95 S,Hardeeville,SC
T-20314327,Accident,3,201,2018-12-31 00:18:41,2018-12-31 00:48:02,33.414227,-80.66803,,I-26 E,Bowman,SC
T-20314328,Accident,2,201,2018-12-31 00:46:11,2018-12-31 01:15:49,33.209381,-80.653542,6890.0,Dorange Rd,Reevesville,SC
T-20314329,Accident,3,201,2018-12-31 00:56:10,2018-12-31 01:25:48,32.998169,-80.093689,,I-26 E,Ladson,SC
T-20314330,Congestion,2,72,2018-12-31 01:01:00,2018-12-31 01:41:58,33.054138,-81.31736,3681.0,Barnwell Hwy,Allendale,SC
T-20314331,Accident,3,201,2018-12-31 01:11:06,2018-12-31 01:40:44,33.635117,-80.876175,,I-26 E,Saint Matthews,SC
T-20314337,Congestion,2,73,2018-12-31 04:08:00,2018-12-31 04:48:40,39.746899,-94.048203,,Chicago-Kansas City Expressway E,Hamilton,MO
T-20314364,Accident,3,201,2018-12-31 01:39:26,2018-12-31 02:09:11,38.630333,-90.362183,,S McKnight Rd,Saint Louis,MO
T-20314365,Congestion,1,70,2018-12-31 01:25:00,2018-12-31 02:41:42,38.619808,-90.362411,9498.0,Tilles Dr,Saint Louis,MO
T-20314405,Congestion,2,72,2018-12-31 00:04:00,2018-12-31 00:44:56,44.14344,-87.73243,,I-43 S,Manitowoc,WI
T-20314406,Congestion,2,76,2018-12-31 00:51:00,2018-12-31 01:37:58,44.890049,-96.913261,46458.0,US Highway 212,Goodwin,SD
T-20314407,Congestion,2,71,2018-12-31 00:56:00,2018-12-31 01:38:55,44.938923,-93.274818,,I-35W S,Minneapolis,MN
T-20314408,Accident,3,201,2018-12-31 01:00:26,2018-12-31 01:29:48,44.920216,-93.274605,,I-35W N,Minneapolis,MN
T-20314409,Congestion,1,70,2018-12-31 01:28:00,2018-12-31 02:09:54,44.576309,-91.203117,,I-94 E,Osseo,WI
T-20314410,Congestion,2,74,2018-12-31 01:35:00,2018-12-31 02:19:53,44.933384,-96.553055,,US-212 E,Gary,SD
T-20314411,Accident,2,201,2018-12-31 02:02:56,2018-12-31 02:32:38,44.861614,-93.298309,,I-35W N,Minneapolis,MN
T-20314412,Lane-Blocked,3,646,2018-12-31 02:13:25,2018-12-31 02:42:58,44.938335,-93.274673,,I-35W N,Minneapolis,MN
T-20314413,Congestion,1,76,2018-12-31 02:15:00,2018-12-31 02:56:57,44.876442,-97.36866,44203.0,US Highway 212,Henry,SD
T-20314414,Congestion,3,75,2018-12-31 01:54:00,2018-12-31 03:17:55,44.942162,-97.055908,,I-29 S,Watertown,SD
T-20314415,Congestion,2,75,2018-12-31 02:39:00,2018-12-31 03:25:52,44.935909,-96.180717,2325.0,US Highway 212,Madison,MN
T-20314416,Congestion,2,75,2018-12-31 02:56:00,2018-12-31 03:40:51,44.863056,-97.047279,,I-29 N,Watertown,SD
T-20314417,Congestion,2,75,2018-12-31 03:10:00,2018-12-31 03:53:51,44.782677,-96.934921,,I-29 N,Castlewood,SD
T-20314418,Accident,3,201,2018-12-31 03:13:44,2018-12-31 03:42:56,44.861614,-93.298309,,I-35W N,Minneapolis,MN
T-20314419,Congestion,0,76,2018-12-31 03:12:00,2018-12-31 03:56:51,44.9062,-94.052635,2975.0,Highway 7,Lester Prairie,MN
T-20314420,Congestion,1,75,2018-12-31 03:18:00,2018-12-31 03:58:52,44.764027,-96.908913,,I-29 N,Clear Lake,SD
T-20314421,Congestion,2,76,2018-12-31 03:16:00,2018-12-31 03:59:51,44.95713,-97.055153,,I-29 N,Watertown,SD
T-20314422,Flow-Incident,3,214,2018-12-31 03:21:50,2018-12-31 03:50:06,44.914402,-92.981544,,I-494 W,Saint Paul,MN
T-20314423,Congestion,2,76,2018-12-31 03:20:00,2018-12-31 04:04:54,44.935249,-95.914001,3640.0,Highway 212,Dawson,MN
T-20314424,Lane-Blocked,3,63,2018-12-31 03:32:33,2018-12-31 04:02:03,44.835922,-93.551392,,US-212 W,Chanhassen,MN
T-20314425,Congestion,2,75,2018-12-31 03:10:00,2018-12-31 04:14:52,44.887848,-97.056686,,I-29 N,Watertown,SD
T-20314426,Congestion,0,75,2018-12-31 03:29:00,2018-12-31 04:14:52,44.90667,-94.168671,8686.0,Highway 7,Silver Lake,MN
T-20314427,Lane-Blocked,2,63,2018-12-31 03:40:50,2018-12-31 04:10:00,44.815514,-93.603043,,US-212 W,Chaska,MN
T-20314428,Congestion,1,76,2018-12-31 03:58:00,2018-12-31 04:42:50,44.810528,-95.577568,5343.0,Highway 212,Granite Falls,MN
T-20314429,Congestion,2,74,2018-12-31 04:09:00,2018-12-31 04:55:50,44.936172,-95.995239,3269.0,Highway 212,Dawson,MN
T-20314430,Congestion,2,76,2018-12-31 04:34:00,2018-12-31 05:27:50,44.952061,-95.043762,17918.0,Highway 71 S,Blomkest,MN
T-20314431,Congestion,0,75,2018-12-31 05:10:00,2018-12-31 05:50:50,44.191231,-93.9972,,MN-60 W,Mankato,MN
T-20314432,Congestion,2,75,2018-12-31 05:09:00,2018-12-31 05:50:50,44.887848,-97.056686,,I-29 N,Watertown,SD
T-20314433,Congestion,2,76,2018-12-31 04:22:00,2018-12-31 05:54:50,44.959049,-97.055527,,I-29 S,Watertown,SD
T-20314434,Congestion,0,75,2018-12-31 05:16:00,2018-12-31 06:07:00,44.842136,-102.045219,17622.0,SD Highway 73,Faith,SD
T-20314435,Congestion,1,75,2018-12-31 05:55:00,2018-12-31 06:39:49,44.758369,-92.701035,,W11290 US Highway 10,Prescott,WI
T-20314440,Congestion,1,70,2018-12-31 01:42:00,2018-12-31 02:25:04,43.835899,-101.721657,,I-90 E,Kadoka,SD
T-20314441,Congestion,2,76,2018-12-31 05:36:00,2018-12-31 06:26:49,43.537697,-89.597816,,I-90 E,Portage,WI
T-20314454,Accident,2,203,2018-12-31 02:12:38,2018-12-31 02:42:15,41.21944,-96.196327,4098.0,S 180th St,Omaha,NE
T-20314455,Accident,2,203,2018-12-31 02:13:14,2018-12-31 02:42:51,41.285053,-96.023895,,Maple St,Omaha,NE
T-20314456,Accident,2,203,2018-12-31 03:00:10,2018-12-31 03:29:53,41.2341,-96.119484,,W Center Rd,Omaha,NE
T-20314458,Congestion,2,74,2018-12-31 02:13:00,2018-12-31 03:01:52,46.861198,-101.423828,,I-94 E,New Salem,ND
T-20314475,Accident,2,201,2018-12-31 00:13:49,2018-12-31 00:43:26,45.572739,-93.215179,728.0,1st Ave E,Cambridge,MN
T-20314476,Congestion,1,75,2018-12-31 00:10:00,2018-12-31 00:55:53,45.341011,-97.359291,,US Highway 12,Waubay,SD
T-20314477,Accident,3,241,2018-12-31 00:33:42,2018-12-31 01:02:52,44.968178,-93.270088,1485.0,4th Ave S,Minneapolis,MN
T-20314478,Congestion,2,76,2018-12-31 00:32:00,2018-12-31 01:17:53,45.330696,-97.16172,,US-12 E,Ortley,SD
T-20314479,Congestion,1,75,2018-12-31 00:43:00,2018-12-31 01:24:53,45.0802,-94.217255,15988.0,US Highway 12 SW,Cokato,MN
T-20314480,Accident,3,201,2018-12-31 00:48:10,2018-12-31 01:17:21,44.969841,-93.307899,,I-394 E,Minneapolis,MN
T-20314481,Lane-Blocked,2,63,2018-12-31 00:59:21,2018-12-31 01:28:41,45.152473,-93.274742,,Foley Blvd NW,Minneapolis,MN
T-20314482,Congestion,1,74,2018-12-31 00:56:00,2018-12-31 01:42:54,45.044647,-96.062904,2747.0,291st Ave,Madison,MN
T-20314483,Congestion,1,70,2018-12-31 01:01:00,2018-12-31 01:47:53,45.012623,-96.063171,2411.0,291st Ave,Madison,MN
T-20314484,Congestion,1,70,2018-12-31 01:01:00,2018-12-31 01:49:54,44.98288,-93.272469,200.0,N 3rd St,Minneapolis,MN
T-20314485,Congestion,1,71,2018-12-31 01:13:00,2018-12-31 01:54:54,44.965649,-93.268204,,I-94 E,Minneapolis,MN
T-20314486,Congestion,2,73,2018-12-31 01:44:00,2018-12-31 02:24:57,45.039154,-97.054527,,I-29 N,Watertown,SD
T-20314487,Congestion,2,71,2018-12-31 01:29:00,2018-12-31 02:37:52,44.97031,-93.326157,,I-394 W,Minneapolis,MN
T-20314488,Accident,3,201,2018-12-31 02:02:07,2018-12-31 02:31:31,44.969799,-93.344116,5143.0,Wayzata Blvd,Minneapolis,MN
T-20314489,Congestion,1,73,2018-12-31 01:52:00,2018-12-31 02:39:51,45.382576,-97.043594,,I-29 S,Summit,SD
T-20314490,Accident,3,201,2018-12-31 02:04:20,2018-12-31 02:33:39,45.031368,-93.088524,3005.0,Centerville Rd,Saint Paul,MN
T-20314491,Congestion,1,74,2018-12-31 02:03:00,2018-12-31 02:43:51,45.263306,-97.05191,,I-29 S,Summit,SD
T-20314492,Lane-Blocked,3,646,2018-12-31 02:06:55,2018-12-31 02:36:28,45.491875,-94.151924,,Roosevelt Rd,Saint Cloud,MN
T-20314493,Congestion,2,75,2018-12-31 02:13:00,2018-12-31 02:55:51,45.02335,-97.054047,,I-29 N,Watertown,SD
T-20314494,Congestion,2,75,2018-12-31 02:15:00,2018-12-31 02:55:51,45.101994,-97.056259,,I-29 N,South Shore,SD
T-20314495,Congestion,2,74,2018-12-31 02:14:00,2018-12-31 02:54:52,45.150352,-97.056084,,I-29 N,South Shore,SD
T-20314496,Accident,3,201,2018-12-31 02:31:47,2018-12-31 03:01:32,45.23761,-93.649567,,61st St NE,Albertville,MN
T-20314497,Accident,2,201,2018-12-31 02:31:00,2018-12-31 03:00:38,45.279518,-93.548538,17001.0,Highway 10,Elk River,MN
T-20314498,Congestion,0,70,2018-12-31 02:35:00,2018-12-31 03:21:52,45.110558,-96.639511,15677.0,SD Highway 15,Milbank,SD
T-20314499,Congestion,2,76,2018-12-31 02:43:00,2018-12-31 03:23:51,45.182835,-97.056503,,I-29 N,Summit,SD
T-20314500,Congestion,0,70,2018-12-31 02:48:00,2018-12-31 03:28:51,45.177231,-96.640411,15214.0,SD Highway 15,Milbank,SD
T-20314501,Congestion,1,70,2018-12-31 02:53:00,2018-12-31 03:38:51,44.997723,-96.196266,,US-75 N,Madison,MN
T-20314502,Congestion,1,75,2018-12-31 02:58:00,2018-12-31 03:43:53,45.033772,-98.51371,,386th Ave,Ashton,SD
T-20314503,Congestion,1,75,2018-12-31 03:46:00,2018-12-31 04:32:52,45.151058,-95.015785,,MN-23,Willmar,MN
T-20314504,Congestion,0,75,2018-12-31 03:51:00,2018-12-31 04:36:50,45.231503,-94.997864,11195.0,Highway 71 NE,Spicer,MN
T-20314505,Congestion,2,75,2018-12-31 03:46:00,2018-12-31 04:38:50,45.108845,-95.017296,1658.0,State Highway 23,Willmar,MN
T-20314506,Congestion,1,76,2018-12-31 04:08:00,2018-12-31 04:54:51,45.371059,-95.009026,25738.0,Highway 71 NE,Belgrade,MN
T-20314507,Congestion,1,76,2018-12-31 04:31:00,2018-12-31 05:15:50,45.348019,-94.829727,23222.0,Highway 23 NE,Hawick,MN
T-20314508,Congestion,1,74,2018-12-31 04:31:00,2018-12-31 05:17:49,45.481281,-95.087708,46931.0,State Highway 55,Brooten,MN
T-20314509,Congestion,2,76,2018-12-31 05:45:00,2018-12-31 06:26:49,45.413231,-94.060867,,I-94 E,Clearwater,MN
T-20314510,Congestion,2,74,2018-12-31 05:51:00,2018-12-31 06:36:49,45.032619,-97.054337,,I-29 N,Watertown,SD
T-20314523,Congestion,1,72,2018-12-31 00:11:00,2018-12-31 01:03:45,38.940163,-94.539268,,I-435 S,Kansas City,MO
T-20314524,Congestion,2,72,2018-12-31 00:25:00,2018-12-31 01:15:43,39.092361,-94.543137,,I-70 W,Kansas City,MO
T-20314525,Congestion,1,76,2018-12-31 00:40:00,2018-12-31 01:21:42,38.977081,-93.411186,,I-70 W,Sweet Springs,MO
T-20314526,Congestion,1,74,2018-12-31 00:43:00,2018-12-31 01:24:44,39.049732,-94.469688,,I-70 W,Kansas City,MO
T-20314527,Congestion,1,75,2018-12-31 01:17:00,2018-12-31 02:03:42,38.953239,-94.529739,,I-435 S,Kansas City,MO
T-20314528,Broken-Vehicle,3,211,2018-12-31 01:38:59,2018-12-31 02:08:36,38.770851,-90.257896,,I-270 E,Saint Louis,MO
T-20314529,Broken-Vehicle,3,211,2018-12-31 02:59:18,2018-12-31 03:28:56,38.97805,-94.712036,,US-69 N,Overland Park,KS
T-20314530,Congestion,1,70,2018-12-31 03:22:00,2018-12-31 04:02:42,39.13599,-94.58062,1.0,W 15th Ave,Kansas City,MO
T-20314531,Accident,3,201,2018-12-31 04:01:53,2018-12-31 04:31:27,39.174274,-94.536842,,I-35 S,Kansas City,MO
T-20314532,Congestion,3,72,2018-12-31 04:44:00,2018-12-31 05:24:40,38.786983,-90.804253,,I-64 W,Lake Saint Louis,MO
T-20314533,Congestion,1,71,2018-12-31 04:43:00,2018-12-31 05:28:40,39.08239,-95.666435,502.0,NW Broad St,Topeka,KS
T-20314539,Congestion,1,70,2018-12-31 03:18:00,2018-12-31 03:58:52,43.016693,-88.090179,14236.0,W Greenfield Ave,Brookfield,WI
T-20314540,Flow-Incident,4,240,2018-12-31 03:43:49,2018-12-31 04:12:51,42.962406,-87.98896,,I-41 N,Milwaukee,WI
T-20314541,Congestion,3,70,2018-12-31 03:57:00,2018-12-31 04:45:50,42.962399,-87.997444,,I-41 N,Milwaukee,WI
T-20314542,Congestion,2,71,2018-12-31 05:37:00,2018-12-31 06:18:40,42.491341,-96.441948,,I-29 S,Sioux City,IA
T-20314543,Event,1,1505,2018-12-31 06:00:00,2019-01-01 05:59:00,43.04493,-87.91745,1141.0,N 5th St,Milwaukee,WI
T-20314544,Event,1,1505,2018-12-31 06:00:00,2019-01-01 05:59:00,43.04493,-87.91745,1141.0,N 5th St,Milwaukee,WI
T-20314587,Congestion,2,71,2018-12-31 01:26:00,2018-12-31 02:06:42,42.007824,-93.004433,,240th St,Marshalltown,IA
T-20314588,Congestion,2,71,2018-12-31 02:12:00,2018-12-31 03:02:51,41.87373,-87.906357,,Chicago-Kansas City Expressway W,Hillside,IL
T-20314589,Congestion,1,70,2018-12-31 03:48:00,2018-12-31 04:39:51,41.869282,-87.627403,1101.0,S State St,Chicago,IL
T-20314590,Congestion,2,71,2018-12-31 05:23:00,2018-12-31 06:09:50,41.988941,-88.023193,,I-290 W,Itasca,IL
T-20314591,Broken-Vehicle,2,337,2018-12-31 06:01:48,2018-12-31 06:31:20,41.898941,-88.194679,,29W399 Helen Ave,West Chicago,IL
T-20314623,Congestion,1,71,2018-12-31 00:10:00,2018-12-31 01:12:13,29.58522,-98.637657,,State Loop 1604 S,San Antonio,TX
T-20314624,Congestion,2,70,2018-12-31 01:26:00,2018-12-31 02:17:16,29.356621,-98.631264,,Connally Loop,San Antonio,TX
T-20314625,Congestion,2,71,2018-12-31 02:53:00,2018-12-31 04:15:09,29.600065,-98.426392,,TX-1604,San Antonio,TX
T-20314626,Event,1,1502,2018-12-31 06:00:00,2019-01-01 05:59:00,29.428123,-98.437607,111.0,AT and T Center Pkwy,San Antonio Central,TX
T-20314643,Congestion,2,73,2018-12-31 00:20:00,2018-12-31 01:01:39,34.80999,-92.318748,,I-40 E,North Little Rock,AR
T-20314644,Congestion,2,72,2018-12-31 02:20:00,2018-12-31 03:00:38,34.633331,-92.268341,,I-530 N,Little Rock,AR
T-20314646,Congestion,2,71,2018-12-31 01:38:00,2018-12-31 02:19:11,33.796085,-101.837502,,I-27 N,Abernathy,TX
T-20314647,Congestion,1,76,2018-12-31 03:06:00,2018-12-31 03:52:10,32.344887,-101.411377,4351.0,E Highway 350,Big Spring,TX
T-20314648,Congestion,1,76,2018-12-31 04:55:00,2018-12-31 05:43:08,32.339596,-101.416634,4129.0,E Highway 350,Big Spring,TX
T-20314649,Congestion,0,76,2018-12-31 06:00:00,2018-12-31 06:46:08,31.86981,-101.64138,,State Highway 158,Garden City,TX
T-20314698,Congestion,2,71,2018-12-31 00:16:00,2018-12-31 00:57:14,30.192699,-97.684883,4525.0,US Highway 183 S,Austin,TX
T-20314699,Congestion,2,70,2018-12-31 00:20:00,2018-12-31 01:18:40,32.83688,-97.033813,,Airport Fwy E,Irving,TX
T-20314700,Congestion,2,73,2018-12-31 00:39:00,2018-12-31 01:27:17,28.757193,-96.992706,,State Loop 175,Victoria,TX
T-20314701,Congestion,2,70,2018-12-31 00:41:00,2018-12-31 01:27:17,31.12216,-97.795609,,I-14 W,Fort Hood,TX
T-20314702,Congestion,2,73,2018-12-31 00:52:00,2018-12-31 01:34:13,28.757193,-96.992706,,State Loop 175,Victoria,TX
T-20314703,Congestion,2,74,2018-12-31 00:53:00,2018-12-31 01:45:12,28.756689,-96.993988,,State Loop 175,Victoria,TX
T-20314704,Congestion,1,73,2018-12-31 03:17:00,2018-12-31 04:02:33,35.60017,-97.735023,13704.0,NW Expressway,Yukon,OK
T-20314705,Congestion,1,73,2018-12-31 03:52:00,2018-12-31 04:33:34,35.683529,-97.933472,2535.0,NW Expressway,Okarche,OK
T-20314706,Congestion,2,73,2018-12-31 03:56:00,2018-12-31 04:43:09,30.518311,-97.670166,906.0,E Palm Valley Blvd,Round Rock,TX
T-20314707,Event,1,1502,2018-12-31 06:00:00,2019-01-01 05:59:00,35.463985,-97.515244,102.0,W Reno Ave,Oklahoma City,OK
T-20314731,Congestion,1,75,2018-12-31 00:19:00,2018-12-31 01:00:38,34.90818,-91.209572,,I-40 E,Brinkley,AR
T-20314732,Congestion,3,72,2018-12-31 00:27:00,2018-12-31 01:07:37,34.82262,-91.507454,,US-63 E,Hazen,AR
T-20314733,Congestion,2,71,2018-12-31 00:16:00,2018-12-31 01:14:36,34.906261,-91.197906,1503.0,N Main St,Brinkley,AR
T-20314736,Congestion,2,72,2018-12-31 00:49:00,2018-12-31 01:29:36,34.88876,-91.19455,209.0,N Main St,Brinkley,AR
T-20314737,Congestion,2,73,2018-12-31 00:40:00,2018-12-31 01:28:31,34.953831,-91.016258,,I-40 E,Goodwin,AR
T-20314738,Congestion,1,75,2018-12-31 00:52:00,2018-12-31 01:33:36,34.838234,-91.462814,,I-40 W,Biscoe,AR
T-20314739,Congestion,2,75,2018-12-31 01:18:00,2018-12-31 02:05:38,34.928841,-91.11232,,I-40 E,Wheatley,AR
T-20314740,Congestion,2,74,2018-12-31 05:55:00,2018-12-31 06:36:29,30.173828,-90.882462,,I-10 E,Sorrento,LA
T-20314749,Congestion,2,72,2018-12-31 01:46:00,2018-12-31 02:27:12,31.942961,-102.064552,4511.0,S State Highway 349,Midland,TX
T-20314750,Congestion,0,70,2018-12-31 03:55:00,2018-12-31 04:41:12,31.415833,-102.167999,,Highway 329,Midkiff,TX
T-20314754,Congestion,2,76,2018-12-31 00:06:00,2018-12-31 00:47:37,35.226631,-100.111443,,I-40 E,Shamrock,TX
T-20314801,Congestion,1,76,2018-12-31 01:50:00,2018-12-31 02:32:11,30.974794,-94.826042,24022.0,US Highway 59 N,Corrigan,TX
T-20314802,Congestion,1,76,2018-12-31 02:10:00,2018-12-31 02:52:10,30.974794,-94.826042,24022.0,US Highway 59 N,Corrigan,TX
T-20314833,Accident,3,201,2018-12-31 00:38:31,2018-12-31 01:07:54,32.810123,-96.627533,,N Town East Blvd,Mesquite,TX
T-20314834,Accident,3,246,2018-12-31 01:22:08,2018-12-31 01:51:46,32.739815,-96.822914,,I-35E N,Dallas,TX
T-20314835,Accident,3,201,2018-12-31 01:29:36,2018-12-31 01:58:52,32.809845,-96.627708,,I-635 S,Mesquite,TX
T-20314836,Congestion,2,70,2018-12-31 01:38:00,2018-12-31 02:18:36,32.738983,-96.823441,,I-35E N,Dallas,TX
T-20314837,Congestion,3,72,2018-12-31 01:26:00,2018-12-31 02:20:38,32.740376,-96.822128,,I-35E N,Dallas,TX
T-20314838,Broken-Vehicle,3,211,2018-12-31 01:43:44,2018-12-31 02:12:44,32.87447,-96.682571,,I-635 W,Dallas,TX
T-20314839,Congestion,2,70,2018-12-31 01:47:00,2018-12-31 02:29:34,32.738983,-96.823441,,I-35E N,Dallas,TX
T-20314840,Congestion,2,71,2018-12-31 02:14:00,2018-12-31 03:24:33,32.713715,-96.618706,,I-635 N,Balch Springs,TX
T-20314841,Congestion,1,70,2018-12-31 02:47:00,2018-12-31 03:27:34,32.938629,-96.803558,,Spring Valley Rd,Dallas,TX
T-20314842,Accident,3,245,2018-12-31 03:20:17,2018-12-31 03:49:35,32.795048,-96.694832,,I-30 W,Dallas,TX
T-20314843,Congestion,2,76,2018-12-31 03:44:00,2018-12-31 04:24:33,35.412537,-96.343117,,I-40 E,Okemah,OK
T-20314844,Congestion,1,72,2018-12-31 04:29:00,2018-12-31 05:13:08,30.58037,-96.281837,,TX-6 S,College Station,TX
T-20314881,Congestion,1,72,2018-12-31 00:12:00,2018-12-31 00:53:32,29.954317,-90.085182,,I-10 W,New Orleans,LA
T-20314885,Congestion,1,73,2018-12-31 00:37:00,2018-12-31 01:17:34,29.996302,-90.125732,,I-10 W,Metairie,LA
T-20314891,Accident,3,201,2018-12-31 01:03:42,2018-12-31 01:32:52,29.967222,-90.070335,1700.0,Ursulines Ave,New Orleans,LA
T-20314894,Congestion,0,73,2018-12-31 00:48:00,2018-12-31 02:03:33,29.95694,-90.092911,,Pontchartrain Expy E,New Orleans,LA
T-20314897,Congestion,1,72,2018-12-31 01:24:00,2018-12-31 02:05:30,35.150021,-90.02903,,I-40 E,Memphis,TN
T-20314898,Congestion,2,72,2018-12-31 01:34:00,2018-12-31 02:24:33,32.31871,-90.158646,,I-55 N,Jackson,MS
T-20314899,Congestion,1,70,2018-12-31 02:12:00,2018-12-31 02:52:31,35.069031,-89.794357,2922.0,Hacks Cross Rd,Germantown,TN
T-20314900,Flow-Incident,4,240,2018-12-31 02:42:04,2018-12-31 03:11:34,30.094465,-90.438354,,I-55 N,LA Place,LA
T-20314901,Congestion,2,73,2018-12-31 02:37:00,2018-12-31 03:27:30,35.168831,-90.185951,,I-40 E,West Memphis,AR
T-20314902,Congestion,1,76,2018-12-31 02:48:00,2018-12-31 03:32:30,35.154129,-90.245415,,I-40 E,Marion,AR
T-20314903,Congestion,1,70,2018-12-31 03:17:00,2018-12-31 03:57:30,32.283009,-90.009354,,High Pointe Dr,Brandon,MS
T-20314904,Congestion,0,74,2018-12-31 03:42:00,2018-12-31 04:27:29,30.321253,-90.101532,,Lake Pontchartrain Cswy,Lacombe,LA
T-20314905,Congestion,1,74,2018-12-31 04:37:00,2018-12-31 05:21:29,30.104115,-90.139305,,Lake Pontchartrain Cswy,Lacombe,LA
T-20314906,Congestion,0,70,2018-12-31 04:53:00,2018-12-31 05:34:30,30.236097,-90.116142,,Lake Pontchartrain Cswy,Lacombe,LA
T-20314907,Congestion,2,70,2018-12-31 05:01:00,2018-12-31 05:41:30,29.983471,-90.263557,,E Airline Hwy,Kenner,LA
T-20314908,Event,1,1502,2018-12-31 08:00:00,2019-01-01 07:59:00,29.949333,-90.082024,1501.0,Dave Dixon Dr,New Orleans,LA
T-20314972,Congestion,3,72,2018-12-31 00:06:00,2018-12-31 00:48:32,36.396145,-86.717194,,I-65 S,Goodlettsville,TN
T-20314973,Congestion,1,70,2018-12-31 00:07:00,2018-12-31 00:47:32,36.536831,-87.33847,1198.0,Red River St,Clarksville,TN
T-20314974,Congestion,2,74,2018-12-31 00:09:00,2018-12-31 00:50:39,33.284649,-86.80088,,I-65 S,Pelham,AL
T-20314976,Congestion,1,72,2018-12-31 00:28:00,2018-12-31 01:09:32,32.968338,-86.680473,,I-65 S,Jemison,AL
T-20314977,Congestion,1,73,2018-12-31 00:30:00,2018-12-31 01:11:32,36.213879,-86.775566,,I-24 W,Nashville,TN
T-20314978,Congestion,2,75,2018-12-31 00:25:00,2018-12-31 01:12:32,36.335049,-86.710709,,I-65 S,Goodlettsville,TN
T-20314979,Accident,2,201,2018-12-31 03:59:01,2018-12-31 04:28:32,30.521133,-87.313217,,FL-8 E,Pensacola,FL
T-20314980,Accident,3,203,2018-12-31 04:01:08,2018-12-31 04:30:27,36.220852,-86.774704,,I-65 S,Nashville,TN
T-20314981,Congestion,1,70,2018-12-31 04:44:00,2018-12-31 05:44:29,36.173809,-86.76281,599.0,Main St,Nashville,TN
T-20314982,Congestion,2,73,2018-12-31 04:37:00,2018-12-31 05:50:29,36.190418,-86.775421,,I-24 W,Nashville,TN
T-20315005,Congestion,2,71,2018-12-31 00:55:00,2018-12-31 01:36:31,34.241791,-85.909752,,I-59 N,Collinsville,AL
T-20315006,Congestion,2,74,2018-12-31 00:59:00,2018-12-31 01:47:32,33.773853,-86.441971,,I-59 N,Springville,AL
T-20315007,Accident,3,201,2018-12-31 04:02:56,2018-12-31 04:32:38,32.841717,-86.594673,,I-65 N,Clanton,AL
T-20315008,Congestion,1,70,2018-12-31 04:32:00,2018-12-31 05:12:31,35.54715,-86.313438,4901.0,Highway 64 E,Wartrace,TN
T-20315024,Congestion,1,74,2018-12-31 00:31:00,2018-12-31 01:12:37,35.459263,-93.492241,,I-40 E,Clarksville,AR
T-20315025,Congestion,2,70,2018-12-31 00:51:00,2018-12-31 01:32:35,35.497456,-93.653831,,I-40 E,Hartman,AR
T-20315033,Congestion,2,72,2018-12-31 00:34:00,2018-12-31 01:25:40,31.364376,-89.339386,,I-59 N,Hattiesburg,MS
T-20315034,Congestion,2,73,2018-12-31 00:49:00,2018-12-31 01:30:38,35.262474,-89.664345,,I-40 E,Arlington,TN
T-20315035,Accident,2,201,2018-12-31 02:58:11,2018-12-31 03:27:47,35.243599,-89.357628,16299.0,US Highway 64,Somerville,TN
T-20315134,Congestion,0,73,2018-12-31 00:10:00,2018-12-31 00:51:14,29.914944,-95.485985,12737.0,State Highway 249,Houston,TX
T-20315135,Congestion,2,75,2018-12-31 00:11:00,2018-12-31 00:55:13,29.506252,-95.115883,,I-45 N,League City,TX
T-20315136,Congestion,2,74,2018-12-31 00:15:00,2018-12-31 00:56:37,35.458138,-95.554909,,I-40 E,Checotah,OK
T-20315137,Congestion,1,76,2018-12-31 00:42:00,2018-12-31 01:22:35,35.222961,-95.605728,,US-69 S,Eufaula,OK
T-20315138,Congestion,2,74,2018-12-31 01:36:00,2018-12-31 02:17:34,35.459011,-95.625412,,I-40 E,Checotah,OK
T-20315139,Congestion,1,75,2018-12-31 02:05:00,2018-12-31 02:47:10,30.274967,-95.1343,11903.0,Highway 59,Cleveland,TX
T-20315140,Congestion,1,74,2018-12-31 02:13:00,2018-12-31 02:57:10,29.778437,-95.339806,,I-69 N,Houston,TX
T-20315141,Congestion,1,72,2018-12-31 02:37:00,2018-12-31 03:19:11,29.766933,-95.346069,,I-69 N,Houston,TX
T-20315142,Construction,3,701,2018-12-31 03:00:00,2018-12-31 11:00:00,29.780809,-95.116089,548.0,Crockett St,Channelview,TX
T-20315143,Congestion,2,73,2018-12-31 04:32:00,2018-12-31 05:12:32,31.997274,-95.033051,,US Highway 79 E,Jacksonville,TX
T-20315144,Event,1,1502,2018-12-31 06:00:00,2019-01-01 05:59:00,29.750471,-95.362022,1405.0,Crawford St,Houston,TX
T-20315158,Congestion,2,72,2018-12-31 00:55:00,2018-12-31 01:42:15,29.031973,-99.045471,,N Interstate 35,Pearsall,TX
T-20315159,Congestion,2,74,2018-12-31 01:31:00,2018-12-31 02:12:35,35.229256,-99.935669,,I-40 E,Texola,OK
T-20315160,Congestion,1,71,2018-12-31 02:56:00,2018-12-31 03:51:11,28.024345,-99.900108,,FM 1472,Laredo,TX
T-20315161,Congestion,1,71,2018-12-31 04:56:00,2018-12-31 05:52:08,28.054317,-99.933578,,FM 1472,Laredo,TX
T-20315181,Congestion,2,75,2018-12-31 00:07:00,2018-12-31 00:51:05,45.43763,-107.377808,,I-90 W,Garryowen,MT
T-20315182,Congestion,2,76,2018-12-31 00:05:00,2018-12-31 00:50:04,45.782589,-108.048073,,I-90 E,Pompeys Pillar,MT
T-20315183,Congestion,2,76,2018-12-31 00:12:00,2018-12-31 00:53:03,45.69458,-110.295723,,I-90 W,Livingston,MT
T-20315184,Congestion,2,74,2018-12-31 00:15:00,2018-12-31 00:57:04,45.681839,-109.442596,,I-90 W,Reed Point,MT
T-20315185,Congestion,2,76,2018-12-31 00:15:00,2018-12-31 00:56:06,45.785923,-108.231392,,I-90 W,Huntley,MT
T-20315186,Congestion,2,75,2018-12-31 00:13:00,2018-12-31 00:57:04,45.914932,-112.367012,,I-90 W,Whitehall,MT
T-20315187,Congestion,2,76,2018-12-31 00:19:00,2018-12-31 01:00:09,45.66806,-110.987091,,I-90 W,Bozeman,MT
T-20315188,Congestion,2,70,2018-12-31 00:18:00,2018-12-31 01:00:09,45.744087,-107.788406,,I-90 E,Hardin,MT
T-20315189,Congestion,1,73,2018-12-31 00:16:00,2018-12-31 00:58:08,45.782608,-108.094749,,I-90 E,Billings,MT
T-20315190,Congestion,1,74,2018-12-31 00:19:00,2018-12-31 01:00:09,45.79039,-108.25248,,I-90 W,Huntley,MT
T-20315191,Congestion,2,74,2018-12-31 00:21:00,2018-12-31 01:02:03,45.948315,-112.465683,,I-90 W,Butte,MT
T-20315192,Congestion,1,76,2018-12-31 00:22:00,2018-12-31 01:04:05,45.675262,-111.010323,,I-90 W,Bozeman,MT
T-20315193,Congestion,2,74,2018-12-31 00:22:00,2018-12-31 01:04:05,45.681839,-109.442596,,I-90 W,Reed Point,MT
T-20315194,Congestion,2,74,2018-12-31 00:23:00,2018-12-31 01:06:05,45.693672,-110.280746,,I-90 W,Livingston,MT
T-20315195,Congestion,1,75,2018-12-31 00:24:00,2018-12-31 01:06:05,45.744137,-107.789597,,I-90 E,Hardin,MT
T-20315196,Congestion,3,73,2018-12-31 00:26:00,2018-12-31 01:09:06,45.70364,-110.336502,,I-90 W,Livingston,MT
T-20315197,Congestion,1,76,2018-12-31 00:30:00,2018-12-31 01:12:07,45.647003,-110.934036,,I-90 W,Bozeman,MT
T-20315198,Congestion,2,74,2018-12-31 00:30:00,2018-12-31 01:12:07,45.762814,-107.884781,,I-90 E,Hardin,MT
T-20315199,Congestion,2,76,2018-12-31 00:31:00,2018-12-31 01:15:07,45.750484,-112.731491,,I-15 N,Divide,MT
T-20315200,Congestion,2,76,2018-12-31 00:35:00,2018-12-31 01:21:06,45.702602,-111.058884,,I-90 E,Bozeman,MT
T-20315201,Congestion,2,72,2018-12-31 00:42:00,2018-12-31 01:26:05,45.783554,-108.090111,,I-90 W,Billings,MT
T-20315202,Congestion,1,76,2018-12-31 00:41:00,2018-12-31 01:26:05,45.823788,-108.366524,,I-90 W,Billings,MT
T-20315203,Congestion,1,76,2018-12-31 00:48:00,2018-12-31 01:30:06,45.643703,-110.899414,,I-90 W,Bozeman,MT
T-20315204,Congestion,2,76,2018-12-31 00:47:00,2018-12-31 01:28:06,45.658371,-110.632942,,I-90 E,Livingston,MT
T-20315205,Congestion,2,76,2018-12-31 00:49:00,2018-12-31 01:30:06,45.662987,-110.963547,,I-90 W,Bozeman,MT
T-20315206,Congestion,1,76,2018-12-31 00:51:00,2018-12-31 01:33:10,45.528099,-107.419281,,I-90 E,Garryowen,MT
T-20315207,Congestion,1,75,2018-12-31 00:53:00,2018-12-31 01:36:03,45.746078,-107.6418,,I-90 E,Hardin,MT
T-20315208,Congestion,2,75,2018-12-31 00:53:00,2018-12-31 01:34:07,45.823788,-108.366524,,I-90 W,Billings,MT
T-20315209,Congestion,1,76,2018-12-31 00:56:00,2018-12-31 01:38:04,45.749409,-108.558342,,I-90 W,Billings,MT
T-20315210,Congestion,2,74,2018-12-31 00:37:00,2018-12-31 01:41:04,45.362194,-107.358421,,I-90 W,Lodge Grass,MT
T-20315211,Congestion,2,75,2018-12-31 00:58:00,2018-12-31 01:41:04,45.517479,-111.254471,69922.0,Gallatin Rd,Gallatin Gateway,MT
T-20315212,Congestion,1,76,2018-12-31 01:00:00,2018-12-31 01:42:08,45.646652,-107.47403,,I-90 W,Crow Agency,MT
T-20315213,Congestion,2,76,2018-12-31 01:01:00,2018-12-31 01:42:08,45.70425,-110.339813,,I-90 W,Livingston,MT
T-20315214,Congestion,2,75,2018-12-31 00:59:00,2018-12-31 01:41:04,45.722668,-110.247574,,I-90 E,Livingston,MT
T-20315215,Congestion,2,75,2018-12-31 00:59:00,2018-12-31 01:41:04,45.751492,-107.855469,,I-90 E,Hardin,MT
T-20315216,Congestion,2,75,2018-12-31 00:57:00,2018-12-31 01:39:06,45.779644,-108.120087,,I-90 W,Billings,MT
T-20315217,Congestion,2,76,2018-12-31 00:57:00,2018-12-31 01:39:06,45.782608,-108.094749,,I-90 E,Billings,MT
T-20315218,Congestion,2,76,2018-12-31 01:02:00,2018-12-31 01:45:08,45.66671,-110.82827,,I-90 E,Bozeman,MT
T-20315219,Congestion,2,75,2018-12-31 01:03:00,2018-12-31 01:45:08,45.800129,-108.296089,,I-90 E,Billings,MT
T-20315220,Congestion,1,75,2018-12-31 01:06:00,2018-12-31 01:48:05,45.770874,-110.080086,,I-90 E,Big Timber,MT
T-20315221,Congestion,1,76,2018-12-31 01:08:00,2018-12-31 01:51:05,45.697819,-111.050529,,I-90 E,Bozeman,MT
T-20315222,Congestion,2,75,2018-12-31 01:10:00,2018-12-31 01:53:04,45.468216,-107.376541,,I-90 W,Garryowen,MT
T-20315223,Congestion,2,75,2018-12-31 01:12:00,2018-12-31 01:54:06,45.795444,-108.277374,,I-90 W,Huntley,MT
T-20315224,Congestion,2,75,2018-12-31 01:11:00,2018-12-31 01:55:04,45.64426,-110.928055,,I-90 E,Bozeman,MT
T-20315225,Congestion,1,74,2018-12-31 01:13:00,2018-12-31 01:56:05,45.663277,-110.701584,,I-90 W,Livingston,MT
T-20315226,Congestion,2,75,2018-12-31 01:14:00,2018-12-31 01:55:04,45.743649,-107.776649,,I-90 E,Hardin,MT
T-20315227,Congestion,1,75,2018-12-31 01:20:00,2018-12-31 02:02:05,45.654949,-108.831032,,I-90 W,Laurel,MT
T-20315228,Congestion,1,73,2018-12-31 01:18:00,2018-12-31 02:06:07,45.527489,-107.104927,,US Highway 212,Crow Agency,MT
T-20315229,Congestion,2,74,2018-12-31 01:24:00,2018-12-31 02:05:02,45.535381,-107.279404,,US Highway 212,Garryowen,MT
T-20315230,Congestion,2,75,2018-12-31 01:25:00,2018-12-31 02:08:02,45.520096,-107.412651,,I-90 E,Garryowen,MT
T-20315231,Congestion,2,74,2018-12-31 01:25:00,2018-12-31 02:06:07,45.675514,-108.727211,,I-90 E,Laurel,MT
T-20315232,Congestion,2,76,2018-12-31 01:29:00,2018-12-31 02:10:04,45.746052,-107.664169,,I-90 E,Hardin,MT
T-20315233,Congestion,2,75,2018-12-31 01:29:00,2018-12-31 02:14:04,45.64426,-110.928055,,I-90 E,Bozeman,MT
T-20315234,Congestion,2,76,2018-12-31 01:36:00,2018-12-31 02:17:06,45.706028,-110.361702,,I-90 W,Livingston,MT
T-20315235,Congestion,2,76,2018-12-31 01:29:00,2018-12-31 02:21:05,45.664082,-110.970375,,I-90 W,Bozeman,MT
T-20315236,Congestion,2,76,2018-12-31 01:38:00,2018-12-31 02:20:08,45.720287,-107.544586,,US-212 W,Crow Agency,MT
T-20315237,Congestion,2,75,2018-12-31 01:30:00,2018-12-31 02:20:08,45.779408,-108.125565,,I-90 W,Billings,MT
T-20315238,Congestion,2,75,2018-12-31 01:45:00,2018-12-31 02:26:04,45.573837,-107.420898,,US Highway 212,Garryowen,MT
T-20315239,Congestion,2,76,2018-12-31 01:44:00,2018-12-31 02:26:04,45.751209,-110.158089,,I-90 W,Big Timber,MT
T-20315240,Congestion,1,74,2018-12-31 01:46:00,2018-12-31 02:28:05,45.660114,-110.751556,,I-90 W,Livingston,MT
T-20315241,Congestion,2,74,2018-12-31 01:43:00,2018-12-31 02:24:05,45.782608,-108.094749,,I-90 E,Billings,MT
T-20315242,Congestion,1,75,2018-12-31 01:58:00,2018-12-31 02:40:04,45.648632,-110.871452,,I-90 E,Bozeman,MT
T-20315243,Congestion,2,75,2018-12-31 01:59:00,2018-12-31 02:40:04,45.789734,-108.248627,,I-90 W,Huntley,MT
T-20315244,Congestion,2,76,2018-12-31 02:02:00,2018-12-31 02:47:04,45.521049,-111.251595,5998.0,Gateway South Rd,Gallatin Gateway,MT
T-20315245,Congestion,2,76,2018-12-31 02:07:00,2018-12-31 02:48:07,45.66806,-110.987091,,I-90 W,Bozeman,MT
T-20315246,Congestion,2,75,2018-12-31 02:03:00,2018-12-31 02:50:06,45.579006,-111.196983,75513.0,Gallatin Rd,Gallatin Gateway,MT
T-20315247,Congestion,2,74,2018-12-31 02:09:00,2018-12-31 02:53:03,45.805794,-108.320175,,I-90 W,Huntley,MT
T-20315248,Congestion,3,73,2018-12-31 02:25:00,2018-12-31 03:06:03,45.781536,-108.006561,,US-212 E,Pompeys Pillar,MT
T-20315249,Congestion,1,76,2018-12-31 02:24:00,2018-12-31 03:05:03,45.805794,-108.320175,,I-90 W,Huntley,MT
T-20315250,Congestion,1,74,2018-12-31 02:26:00,2018-12-31 03:08:06,45.661179,-110.662491,,I-90 W,Livingston,MT
T-20315251,Congestion,1,74,2018-12-31 02:30:00,2018-12-31 03:12:02,45.773491,-107.938271,,I-90 W,Hardin,MT
T-20315252,Congestion,0,75,2018-12-31 02:30:00,2018-12-31 03:14:02,45.513256,-108.890373,10031.0,US Highway 212,Joliet,MT
T-20315253,Congestion,2,75,2018-12-31 01:51:00,2018-12-31 03:18:04,45.372952,-107.363121,,I-90 W,Lodge Grass,MT
T-20315254,Congestion,3,74,2018-12-31 02:36:00,2018-12-31 03:17:03,45.781982,-108.07151,,I-90 E,Billings,MT
T-20315255,Congestion,2,75,2018-12-31 02:40:00,2018-12-31 03:22:04,45.74588,-107.689919,,I-90 E,Hardin,MT
T-20315256,Congestion,2,76,2018-12-31 02:44:00,2018-12-31 03:26:04,45.762428,-107.883102,,I-90 E,Hardin,MT
T-20315257,Congestion,2,75,2018-12-31 02:46:00,2018-12-31 03:30:04,45.743824,-107.781532,,I-90 E,Hardin,MT
T-20315258,Congestion,2,76,2018-12-31 02:57:00,2018-12-31 03:41:03,45.662209,-110.725471,,I-90 W,Livingston,MT
T-20315259,Congestion,2,74,2018-12-31 02:58:00,2018-12-31 03:41:03,45.822792,-108.359856,,I-90 W,Billings,MT
T-20315260,Congestion,1,73,2018-12-31 02:55:00,2018-12-31 03:44:01,45.66032,-109.326736,,I-90 W,Columbus,MT
T-20315261,Congestion,2,76,2018-12-31 03:03:00,2018-12-31 03:44:01,45.706974,-110.374779,,I-90 W,Livingston,MT
T-20315262,Congestion,2,76,2018-12-31 03:03:00,2018-12-31 03:46:02,45.660141,-110.63694,,I-90 E,Livingston,MT
T-20315263,Congestion,2,76,2018-12-31 03:06:00,2018-12-31 03:47:01,45.744167,-107.585709,,I-90 W,Crow Agency,MT
T-20315264,Congestion,3,75,2018-12-31 03:10:00,2018-12-31 03:51:01,45.779148,-107.951248,,I-90 E,Pompeys Pillar,MT
T-20315265,Congestion,2,76,2018-12-31 03:12:00,2018-12-31 03:57:03,45.811615,-108.332664,,I-90 W,Huntley,MT
T-20315266,Congestion,2,74,2018-12-31 03:27:00,2018-12-31 04:08:03,45.376503,-107.366501,,I-90 W,Lodge Grass,MT
T-20315267,Congestion,1,76,2018-12-31 03:27:00,2018-12-31 04:09:02,45.764404,-107.89164,,I-90 E,Hardin,MT
T-20315268,Congestion,2,74,2018-12-31 03:27:00,2018-12-31 04:08:03,45.811615,-108.332664,,I-90 W,Huntley,MT
T-20315269,Congestion,2,76,2018-12-31 03:41:00,2018-12-31 04:22:06,45.745495,-107.824699,,I-90 E,Hardin,MT
T-20315270,Congestion,1,76,2018-12-31 03:58:00,2018-12-31 04:40:01,45.639744,-110.911575,,I-90 W,Bozeman,MT
T-20315271,Congestion,2,75,2018-12-31 03:55:00,2018-12-31 04:40:01,45.6469,-108.863762,,I-90 W,Park City,MT
T-20315272,Congestion,1,74,2018-12-31 03:58:00,2018-12-31 04:40:01,45.661823,-110.956146,,I-90 W,Bozeman,MT
T-20315273,Congestion,2,76,2018-12-31 03:54:00,2018-12-31 04:38:02,45.778603,-108.196846,,I-90 W,Huntley,MT
T-20315274,Congestion,2,75,2018-12-31 03:56:00,2018-12-31 04:43:04,45.77916,-108.153862,,I-90 E,Billings,MT
T-20315275,Congestion,2,74,2018-12-31 03:55:00,2018-12-31 04:41:02,45.78323,-108.482483,,I-90 E,Billings,MT
T-20315276,Congestion,2,73,2018-12-31 04:02:00,2018-12-31 04:44:04,45.744339,-107.708633,,I-90 E,Hardin,MT
T-20315277,Congestion,2,74,2018-12-31 04:10:00,2018-12-31 04:51:05,45.61832,-106.694778,,US Highway 212,Lame Deer,MT
T-20315278,Congestion,2,71,2018-12-31 04:08:00,2018-12-31 04:51:05,45.622681,-106.440292,,US Highway 212,Lame Deer,MT
T-20315279,Congestion,2,70,2018-12-31 04:26:00,2018-12-31 05:07:01,45.623508,-106.447578,,US Highway 212,Lame Deer,MT
T-20315280,Congestion,2,73,2018-12-31 04:24:00,2018-12-31 05:07:01,45.631882,-106.535492,,US Highway 212,Lame Deer,MT
T-20315281,Congestion,1,75,2018-12-31 04:10:00,2018-12-31 05:07:01,45.776463,-107.945122,,I-90 E,Pompeys Pillar,MT
T-20315282,Congestion,2,75,2018-12-31 04:28:00,2018-12-31 05:09:01,45.603073,-109.041435,,I-90 E,Park City,MT
T-20315283,Congestion,2,76,2018-12-31 04:28:00,2018-12-31 05:15:02,45.70425,-110.339813,,I-90 W,Livingston,MT
T-20315284,Congestion,2,75,2018-12-31 04:35:00,2018-12-31 05:19:01,45.612709,-109.007683,,I-90 W,Park City,MT
T-20315285,Congestion,2,76,2018-12-31 04:37:00,2018-12-31 05:19:01,45.778664,-108.142609,,I-90 W,Huntley,MT
T-20315286,Congestion,2,74,2018-12-31 04:43:00,2018-12-31 05:24:02,45.636051,-108.908913,,I-90 E,Park City,MT
T-20315287,Congestion,2,73,2018-12-31 04:58:00,2018-12-31 05:40:02,45.663223,-108.797783,,I-90 E,Laurel,MT
T-20315288,Congestion,2,76,2018-12-31 04:59:00,2018-12-31 05:43:01,45.703915,-108.661896,,I-90 W,Billings,MT
T-20315289,Congestion,2,76,2018-12-31 05:08:00,2018-12-31 05:50:02,45.665985,-109.336624,,I-90 W,Columbus,MT
T-20315290,Congestion,2,74,2018-12-31 05:19:00,2018-12-31 06:01:01,45.657158,-110.778397,,I-90 W,Livingston,MT
T-20315291,Congestion,1,75,2018-12-31 05:21:00,2018-12-31 06:03:00,45.681377,-109.440155,,I-90 W,Reed Point,MT
T-20315292,Congestion,1,75,2018-12-31 05:20:00,2018-12-31 06:07:00,45.575161,-108.834007,4691.0,US Highway 310,Joliet,MT
T-20315293,Congestion,1,75,2018-12-31 05:25:00,2018-12-31 06:07:00,45.665325,-110.976112,,I-90 W,Bozeman,MT
T-20315294,Congestion,2,76,2018-12-31 05:28:00,2018-12-31 06:09:00,45.44722,-107.377129,,I-90 W,Garryowen,MT
T-20315295,Congestion,2,75,2018-12-31 05:30:00,2018-12-31 06:13:01,45.640232,-108.888771,,I-90 E,Park City,MT
T-20315296,Congestion,2,76,2018-12-31 05:34:00,2018-12-31 06:15:00,45.646389,-110.877205,,I-90 E,Bozeman,MT
T-20315297,Congestion,1,75,2018-12-31 05:33:00,2018-12-31 06:16:00,45.65485,-109.266472,,I-90 E,Columbus,MT
T-20315298,Congestion,2,72,2018-12-31 05:43:00,2018-12-31 06:24:00,45.532509,-107.423431,,I-90 W,Garryowen,MT
T-20315299,Congestion,2,76,2018-12-31 05:51:00,2018-12-31 06:34:00,45.80378,-108.308182,,I-90 E,Billings,MT
T-20315300,Congestion,2,76,2018-12-31 05:56:00,2018-12-31 06:37:00,45.624683,-107.46553,,I-90 W,Crow Agency,MT
T-20315301,Congestion,2,76,2018-12-31 05:52:00,2018-12-31 06:36:00,45.646191,-108.866676,,I-90 W,Park City,MT
T-20315303,Congestion,2,75,2018-12-31 00:56:00,2018-12-31 01:38:04,37.614712,-113.151604,,I-15 N,Cedar City,UT
T-20315304,Congestion,2,74,2018-12-31 01:00:00,2018-12-31 01:42:08,37.26754,-113.322197,,I-15 N,Toquerville,UT
T-20315305,Congestion,1,70,2018-12-31 05:35:00,2018-12-31 06:17:02,37.684353,-113.079399,,I-15 N,Cedar City,UT
T-20315306,Congestion,1,70,2018-12-31 05:35:00,2018-12-31 06:17:02,37.726822,-113.053841,,I-15 N,Cedar City,UT
T-20315348,Congestion,0,73,2018-12-31 01:04:00,2018-12-31 01:48:05,47.235863,-114.157928,86166.0,US Highway 93,Arlee,MT
T-20315349,Congestion,3,73,2018-12-31 02:16:00,2018-12-31 02:57:07,47.409374,-115.510132,,I-90 W,Saltese,MT
T-20315350,Congestion,1,75,2018-12-31 01:14:00,2018-12-31 01:57:08,47.462921,-115.740524,,I-90 W,Mullan,ID
T-20315351,Congestion,1,75,2018-12-31 01:26:00,2018-12-31 02:08:09,47.46883,-115.859268,,I-90 W,Wallace,ID
T-20315352,Congestion,1,76,2018-12-31 02:30:00,2018-12-31 03:12:08,47.395031,-115.43486,,I-90 E,Saltese,MT
T-20315353,Congestion,2,75,2018-12-31 01:28:00,2018-12-31 02:10:04,47.416885,-115.529724,,I-90 E,Saint Regis,MT
T-20315354,Congestion,2,74,2018-12-31 01:24:00,2018-12-31 02:15:03,47.207455,-110.407501,,US Highway 87,Geyser,MT
T-20315355,Congestion,2,75,2018-12-31 01:39:00,2018-12-31 02:23:05,47.228024,-114.974121,,I-90 E,Superior,MT
T-20315356,Congestion,1,76,2018-12-31 02:00:00,2018-12-31 02:41:09,47.224232,-114.966682,,I-90 E,Superior,MT
T-20315357,Congestion,2,75,2018-12-31 02:17:00,2018-12-31 03:00:03,47.429123,-111.514793,,I-15 N,Cascade,MT
T-20315358,Congestion,1,76,2018-12-31 02:25:00,2018-12-31 03:07:03,47.22052,-114.960442,,I-90 E,Superior,MT
T-20315359,Congestion,2,74,2018-12-31 02:28:00,2018-12-31 03:10:05,47.43412,-115.653938,,I-90 W,Saint Regis,MT
T-20315360,Congestion,2,74,2018-12-31 03:04:00,2018-12-31 03:45:02,47.43063,-115.643227,,I-90 E,Saint Regis,MT
T-20315361,Congestion,1,75,2018-12-31 04:57:00,2018-12-31 05:40:02,47.301048,-115.182175,,I-90 E,Saint Regis,MT
T-20315362,Congestion,1,75,2018-12-31 05:02:00,2018-12-31 05:44:03,47.299702,-115.114357,,I-90 E,Saint Regis,MT
T-20315363,Congestion,2,74,2018-12-31 05:11:00,2018-12-31 05:52:06,47.474491,-115.904633,,I-90 W,Wallace,ID
T-20315364,Congestion,2,74,2018-12-31 05:16:00,2018-12-31 05:58:00,47.429771,-115.640602,,I-90 W,Saint Regis,MT
T-20315365,Congestion,1,75,2018-12-31 05:29:00,2018-12-31 06:11:03,47.315708,-115.240051,,I-90 E,Saint Regis,MT
T-20315369,Congestion,1,74,2018-12-31 02:10:00,2018-12-31 03:15:02,43.203758,-105.259758,3308.0,State Highway 59,Douglas,WY
T-20315370,Congestion,1,70,2018-12-31 02:39:00,2018-12-31 03:36:01,43.415619,-106.247131,356.0,N 2nd St,Midwest,WY
T-20315371,Congestion,2,75,2018-12-31 02:51:00,2018-12-31 03:36:01,43.419106,-106.385269,,I-25 N,Midwest,WY
T-20315372,Congestion,0,75,2018-12-31 03:02:00,2018-12-31 03:44:01,43.40218,-105.395821,4819.0,State Highway 59,Douglas,WY
T-20315373,Congestion,0,74,2018-12-31 04:00:00,2018-12-31 04:42:02,43.401581,-105.395523,4815.0,State Highway 59,Douglas,WY
T-20315374,Congestion,2,74,2018-12-31 04:01:00,2018-12-31 04:46:02,43.339275,-115.947639,,I-84 E,Mountain Home,ID
T-20315375,Congestion,2,75,2018-12-31 04:04:00,2018-12-31 04:45:01,43.489914,-106.444908,,I-25 N,Casper,WY
T-20315376,Congestion,2,75,2018-12-31 04:05:00,2018-12-31 04:51:05,43.376526,-115.987366,,US-20 W,Boise,ID
T-20315377,Congestion,2,75,2018-12-31 04:12:00,2018-12-31 04:55:03,43.343647,-115.951897,,I-84 W,Mountain Home,ID
T-20315378,Congestion,1,75,2018-12-31 04:17:00,2018-12-31 04:58:01,43.275867,-115.87941,,I-84 E,Mountain Home,ID
T-20315379,Congestion,0,70,2018-12-31 04:34:00,2018-12-31 05:16:01,43.024242,-105.263481,2088.0,State Highway 59,Douglas,WY
T-20315380,Congestion,0,75,2018-12-31 04:32:00,2018-12-31 05:16:01,43.204159,-105.259758,3165.0,State Highway 59,Douglas,WY
T-20315381,Congestion,1,74,2018-12-31 04:42:00,2018-12-31 05:29:01,43.334991,-106.260674,,WY-259,Midwest,WY
T-20315382,Congestion,0,75,2018-12-31 04:53:00,2018-12-31 05:36:01,43.018513,-105.262688,2053.0,State Highway 59,Douglas,WY
T-20315383,Congestion,1,75,2018-12-31 04:54:00,2018-12-31 05:37:02,43.278629,-105.307114,3839.0,State Highway 59,Douglas,WY
T-20315384,Congestion,2,76,2018-12-31 05:24:00,2018-12-31 06:09:00,43.099274,-106.337631,,I-25 S,Casper,WY
T-20315385,Congestion,1,76,2018-12-31 05:33:00,2018-12-31 06:15:00,43.272736,-115.876038,,I-84 E,Mountain Home,ID
T-20315386,Congestion,2,75,2018-12-31 05:26:00,2018-12-31 06:25:00,43.237106,-115.837784,12298.0,Ditto Creek Rd,Mountain Home,ID
T-20315387,Congestion,2,75,2018-12-31 05:26:00,2018-12-31 06:16:00,43.317944,-115.924667,,I-84 E,Mountain Home,ID
T-20315388,Congestion,0,75,2018-12-31 05:50:00,2018-12-31 06:32:00,42.965298,-105.275085,1678.0,State Highway 59,Douglas,WY
T-20315389,Congestion,1,75,2018-12-31 05:51:00,2018-12-31 06:37:00,43.027374,-106.765953,40197.0,US Highway 20,Casper,WY
T-20315501,Congestion,1,75,2018-12-31 00:13:00,2018-12-31 00:56:06,39.67765,-105.938705,,I-70 W,Dillon,CO
T-20315502,Congestion,1,75,2018-12-31 00:16:00,2018-12-31 01:00:09,39.271423,-103.679512,,I-70 E,Limon,CO
T-20315503,Congestion,2,73,2018-12-31 00:29:00,2018-12-31 01:10:08,39.368645,-106.059914,796.0,Highway 9,Breckenridge,CO
T-20315504,Congestion,1,74,2018-12-31 00:21:00,2018-12-31 01:11:05,39.480541,-106.048111,300.0,Four Oclock Rd,Breckenridge,CO
T-20315505,Congestion,1,75,2018-12-31 00:30:00,2018-12-31 01:12:07,39.755039,-105.012878,,I-25 N,Denver,CO
T-20315506,Congestion,1,71,2018-12-31 00:25:00,2018-12-31 01:14:05,39.754829,-105.025139,,W 26th Ave,Denver,CO
T-20315507,Construction,3,407,2018-12-31 00:36:54,2018-12-31 01:06:00,39.762409,-105.003899,3200.0,Navajo St,Denver,CO
T-20315508,Congestion,1,76,2018-12-31 00:39:00,2018-12-31 01:20:08,39.23978,-104.877274,,I-25 N,Larkspur,CO
T-20315509,Congestion,2,73,2018-12-31 00:41:00,2018-12-31 01:23:04,39.272739,-103.68322,,I-70 E,Limon,CO
T-20315510,Congestion,2,75,2018-12-31 00:54:00,2018-12-31 01:36:03,38.94772,-109.785645,,I-70 E,Thompson,UT
T-20315511,Congestion,1,74,2018-12-31 00:47:00,2018-12-31 01:38:04,39.712952,-105.000206,,I-25 S,Denver,CO
T-20315513,Congestion,2,73,2018-12-31 00:58:00,2018-12-31 01:40:08,39.272739,-103.68322,,I-70 E,Limon,CO
T-20315514,Congestion,2,75,2018-12-31 01:01:00,2018-12-31 01:42:08,39.694828,-105.733986,,I-70 E,Silver Plume,CO
T-20315515,Congestion,1,71,2018-12-31 00:49:00,2018-12-31 01:49:06,39.724842,-105.025208,489.0,Federal Blvd,Denver,CO
T-20315516,Congestion,0,72,2018-12-31 01:00:00,2018-12-31 01:51:05,39.746265,-105.025223,1901.0,Federal Blvd,Denver,CO
T-20315517,Congestion,1,75,2018-12-31 01:22:00,2018-12-31 02:05:02,39.741104,-105.508873,,I-70 E,Idaho Springs,CO
T-20315518,Congestion,1,70,2018-12-31 01:26:00,2018-12-31 02:08:02,39.587387,-110.792274,,E Highway 6,Price,UT
T-20315519,Congestion,2,73,2018-12-31 01:57:00,2018-12-31 02:42:05,39.325771,-102.095367,,I-70 E,Burlington,CO
T-20315520,Congestion,2,75,2018-12-31 01:57:00,2018-12-31 02:41:09,39.565823,-106.23774,,I-70 E,Vail,CO
T-20315521,Congestion,2,75,2018-12-31 02:16:00,2018-12-31 03:02:06,39.816586,-111.833565,,I-15 N,Mona,UT
T-20315522,Congestion,1,70,2018-12-31 02:35:00,2018-12-31 03:18:04,39.344296,-112.080376,,I-15 N,Nephi,UT
T-20315523,Congestion,2,76,2018-12-31 03:10:00,2018-12-31 03:51:02,39.533772,-111.863686,,UT-28,Nephi,UT
T-20315524,Congestion,2,74,2018-12-31 03:07:00,2018-12-31 03:51:07,39.686989,-114.753639,,US-93 N,Ely,NV
T-20315525,Congestion,2,75,2018-12-31 03:14:00,2018-12-31 03:55:02,39.796383,-111.838753,,I-15 S,Mona,UT
T-20315526,Congestion,2,70,2018-12-31 03:29:00,2018-12-31 04:15:02,39.402538,-112.058098,,I-15 S,Nephi,UT
T-20315527,Congestion,1,75,2018-12-31 03:26:00,2018-12-31 04:15:07,39.436546,-114.770241,,US-93 N,Ely,NV
T-20315528,Congestion,2,70,2018-12-31 03:36:00,2018-12-31 04:17:04,39.400574,-112.059296,,I-15 N,Nephi,UT
T-20315529,Congestion,1,75,2018-12-31 03:46:00,2018-12-31 04:27:06,39.598251,-114.760101,,US Highway 93,Ely,NV
T-20315530,Congestion,2,70,2018-12-31 03:48:00,2018-12-31 04:30:03,39.315262,-112.085648,,I-15 S,Fillmore,UT
T-20315531,Congestion,1,70,2018-12-31 03:56:00,2018-12-31 04:43:04,39.025566,-104.832756,,I-25 N,Usaf Academy,CO
T-20315532,Congestion,2,70,2018-12-31 04:14:00,2018-12-31 04:55:03,39.32954,-112.082108,,I-15 N,Nephi,UT
T-20315533,Congestion,2,74,2018-12-31 04:18:00,2018-12-31 05:01:01,39.047665,-104.845871,,I-25 N,Colorado Springs,CO
T-20315534,Congestion,3,73,2018-12-31 04:22:00,2018-12-31 05:03:04,39.300423,-111.893402,,UT-28,Fayette,UT
T-20315535,Congestion,2,76,2018-12-31 05:30:00,2018-12-31 06:12:01,39.285831,-103.196503,,I-70 W,Arriba,CO
T-20315536,Congestion,2,70,2018-12-31 05:28:00,2018-12-31 06:11:03,39.663319,-106.82296,,I-70 W,Eagle,CO
T-20315537,Congestion,1,75,2018-12-31 05:32:00,2018-12-31 06:14:01,39.204922,-112.168137,,I-15 S,Fillmore,UT
T-20315546,Congestion,1,74,2018-12-31 00:20:00,2018-12-31 01:03:06,41.732334,-106.651413,,I-80 E,Hanna,WY
T-20315547,Congestion,1,73,2018-12-31 00:37:00,2018-12-31 01:21:06,41.739769,-106.618935,,I-80 W,Hanna,WY
T-20315548,Congestion,1,76,2018-12-31 00:48:00,2018-12-31 01:30:06,41.716904,-106.44249,,I-80 W,Hanna,WY
T-20315549,Congestion,1,70,2018-12-31 01:56:00,2018-12-31 02:39:03,41.721958,-106.453407,,I-80 W,Hanna,WY
T-20315550,Congestion,1,72,2018-12-31 04:01:00,2018-12-31 04:43:04,41.705666,-107.82962,,I-80 W,Wamsutter,WY
T-20315551,Congestion,1,75,2018-12-31 05:20:00,2018-12-31 06:06:01,41.815746,-110.715958,1475.0,US Highway 30,Cokeville,WY
T-20315552,Congestion,2,74,2018-12-31 05:29:00,2018-12-31 06:12:01,41.756084,-107.541641,,I-80 E,Wamsutter,WY
T-20315569,Congestion,3,73,2018-12-31 00:39:00,2018-12-31 01:20:08,38.598057,-112.508331,,I-70 E,Fillmore,UT
T-20315570,Congestion,1,71,2018-12-31 00:53:00,2018-12-31 01:35:05,38.78838,-111.299156,,I-70 E,Richfield,UT
T-20315571,Congestion,1,70,2018-12-31 01:06:00,2018-12-31 01:48:05,38.846867,-111.02076,,I-70 E,Green River,UT
T-20315572,Congestion,2,76,2018-12-31 02:29:00,2018-12-31 03:11:04,38.181831,-112.631882,,I-15 N,Beaver,UT
T-20315573,Congestion,1,75,2018-12-31 05:04:00,2018-12-31 05:54:03,38.733982,-112.588593,,I-15 N,Fillmore,UT
T-20315574,Congestion,1,75,2018-12-31 05:21:00,2018-12-31 06:03:00,38.492149,-112.617363,,I-15 N,Beaver,UT
T-20315575,Congestion,2,76,2018-12-31 05:26:00,2018-12-31 06:07:00,38.662533,-112.591934,,I-15 S,Fillmore,UT
T-20315576,Congestion,2,76,2018-12-31 05:26:00,2018-12-31 06:07:00,38.663544,-112.175766,,I-70 W,Monroe,UT
T-20315577,Congestion,2,76,2018-12-31 05:31:00,2018-12-31 06:12:01,38.662533,-112.591934,,I-15 S,Fillmore,UT
T-20315578,Congestion,2,75,2018-12-31 06:00:00,2018-12-31 06:45:00,38.435307,-112.635284,,I-15 S,Beaver,UT
T-20315604,Congestion,2,76,2018-12-31 00:03:00,2018-12-31 00:45:03,44.272591,-104.835724,,I-90 W,Moorcroft,WY
